zip,city,state,latitude,longitude
00601,ADJUNTAS,PR,18.163995634,-66.71901754
00602,AGUADA,PR,18.385289457,-67.18383896
00603,AGUADILLA,PR,18.450963623,-67.14491698
00606,MARICAO,PR,18.191914026,-66.98321853
00610,ANASCO,PR,18.284549801,-67.1468618
00612,ARECIBO,PR,18.458300705,-66.72156163
00616,BAJADERO,PR,18.445186396,-66.61916958
00617,BARCELONETA,PR,18.437663322,-66.54876757
00622,BOQUERON,PR,18.0329,-67.1289
00623,CABO ROJO,PR,18.081159228,-67.15756083
00624,PENUELAS,PR,18.042847459,-66.72388142
00627,CAMUY,PR,18.473538058,-66.84395819
00637,SABANA GRANDE,PR,18.07097955,-66.94991148
00638,CIALES,PR,18.315388686,-66.4704764
00641,UTUADO,PR,18.254751029,-66.69833516
00646,DORADO,PR,18.446406012,-66.27933181
00647,ENSENADA,PR,17.963455666,-66.93785092
00650,FLORIDA,PR,18.379790292,-66.58516316
00652,GARROCHALES,PR,18.46747026,-66.61530519
00653,GUANICA,PR,17.973403906,-66.90653706
00656,GUAYANILLA,PR,18.019550746,-66.78895216
00659,HATILLO,PR,18.479034382,-66.81207398
00660,HORMIGUEROS,PR,18.138082534,-67.12310354
00662,ISABELA,PR,18.481670447,-67.02573925
00664,JAYUYA,PR,18.224168869,-66.59097158
00667,LAJAS,PR,18.04785348,-67.05742437
00669,LARES,PR,18.294540771,-66.88201205
00670,LAS MARIAS,PR,18.258828113,-66.99085608
00674,MANATI,PR,18.430966057,-66.48067651
00676,MOCA,PR,18.394362819,-67.11356206
00677,RINCON,PR,18.337566605,-67.24385005
00678,QUEBRADILLAS,PR,18.468057359,-66.93327591
00680,MAYAGUEZ,PR,18.18961331,-67.13711104
00682,MAYAGUEZ,PR,18.205773675,-67.17393124
00683,SAN GERMAN,PR,18.085389769,-67.04268274
00685,SAN SEBASTIAN,PR,18.330220992,-66.99321915
00687,MOROVIS,PR,18.342759428,-66.41566792
00688,SABANA HOYOS,PR,18.3613,-66.6224
00690,SAN ANTONIO,PR,18.493962254,-67.09974146
00692,VEGA ALTA,PR,18.432009217,-66.32932792
00693,VEGA BAJA,PR,18.450881455,-66.40301479
00698,YAUCO,PR,18.024785916,-66.85553881
00703,AGUAS BUENAS,PR,18.254331207,-66.10298856
00704,AGUIRRE,PR,17.97083135,-66.24301392
00705,AIBONITO,PR,18.138822991,-66.2697151
00707,MAUNABO,PR,18.000768062,-65.89759509
00714,ARROYO,PR,17.974489908,-66.05697975
00715,MERCEDITA,PR,18.012828735,-66.55452618
00716,PONCE,PR,18.001358545,-66.60587841
00717,PONCE,PR,18.003497126,-66.61300395
00718,NAGUABO,PR,18.210043919,-65.72682836
00719,NARANJITO,PR,18.299193841,-66.24459205
00720,OROCOVIS,PR,18.189367503,-66.41322965
00723,PATILLAS,PR,18.05569705,-66.00930502
00725,CAGUAS,PR,18.233724976,-66.03286806
00727,CAGUAS,PR,18.23224466,-66.05279781
00728,PONCE,PR,18.010416663,-66.64973111
00729,CANOVANAS,PR,18.382012649,-65.89905371
00730,PONCE,PR,18.026352907,-66.61290645
00731,PONCE,PR,18.096790735,-66.63756377
00735,CEIBA,PR,18.266178903,-65.64876508
00736,CAYEY,PR,18.11896544,-66.14957224
00738,FAJARDO,PR,18.333482437,-65.65396899
00739,CIDRA,PR,18.171172035,-66.14810955
00740,PUERTO REAL,PR,18.329627252,-65.63888643
00741,PUNTA SANTIAGO,PR,18.16119008,-65.75420798
00745,RIO GRANDE,PR,18.379057965,-65.82858885
00751,SALINAS,PR,17.979107098,-66.28011727
00754,SAN LORENZO,PR,18.191457865,-65.9716467
00757,SANTA ISABEL,PR,17.970564529,-66.39034719
00765,VIEQUES,PR,18.14336675,-65.45076621
00766,VILLALBA,PR,18.127801312,-66.49604876
00767,YABUCOA,PR,18.06264764,-65.86324251
00769,COAMO,PR,18.07505309,-66.36567608
00771,LAS PIEDRAS,PR,18.192665223,-65.87877955
00772,LOIZA,PR,18.432201733,-65.86648544
00773,LUQUILLO,PR,18.372548387,-65.71945553
00777,JUNCOS,PR,18.226735174,-65.92213853
00778,GURABO,PR,18.249221592,-65.97838807
00780,COTO LAUREL,PR,18.052509722,-66.55373269
00782,COMERIO,PR,18.222394607,-66.22549628
00783,COROZAL,PR,18.338951226,-66.31996462
00784,GUAYAMA,PR,17.981330786,-66.11591118
00791,HUMACAO,PR,18.130491778,-65.82755916
00794,BARRANQUITAS,PR,18.188095753,-66.31264016
00795,JUANA DIAZ,PR,18.03694282,-66.50730516
00802,ST THOMAS,VI,18.338266834,-64.91019031
00820,CHRISTIANSTED,VI,17.744811981,-64.71095202
00830,ST JOHN,VI,18.3356,-64.7508
00840,FREDERIKSTED,VI,17.715578412,-64.84064088
00850,KINGSHILL,VI,17.729427751,-64.78718383
00901,SAN JUAN,PR,18.464555702,-66.10600856
00907,SAN JUAN,PR,18.453167932,-66.0753999
00909,SAN JUAN,PR,18.436135789,-66.06730902
00911,SAN JUAN,PR,18.447986728,-66.05983534
00912,SAN JUAN,PR,18.44544117,-66.06028333
00913,SAN JUAN,PR,18.451132433,-66.04307154
00915,SAN JUAN,PR,18.437837891,-66.04760506
00917,SAN JUAN,PR,18.4215165,-66.05011107
00918,SAN JUAN,PR,18.416531458,-66.06326083
00920,SAN JUAN,PR,18.409377825,-66.08988634
00921,SAN JUAN,PR,18.392791854,-66.08899202
00923,SAN JUAN,PR,18.410224888,-66.0368911
00924,SAN JUAN,PR,18.3995513,-66.01398688
00925,SAN JUAN,PR,18.4023666,-66.05291666
00926,SAN JUAN,PR,18.367909533,-66.05588589
00927,SAN JUAN,PR,18.392798617,-66.06894745
00934,FORT BUCHANAN,PR,18.4078,-66.137
00949,TOA BAJA,PR,18.435921,-66.19399885
00952,SABANA SECA,PR,18.4311915,-66.18311765
00953,TOA ALTA,PR,18.384935021,-66.22530442
00956,BAYAMON,PR,18.363521673,-66.16132271
00957,BAYAMON,PR,18.370093325,-66.18221526
00959,BAYAMON,PR,18.392083921,-66.15348505
00961,BAYAMON,PR,18.408218122,-66.16224522
00962,CATANO,PR,18.437037533,-66.1343486
00965,GUAYNABO,PR,18.431336203,-66.11612421
00966,GUAYNABO,PR,18.399271479,-66.11410101
00968,GUAYNABO,PR,18.405712039,-66.10051059
00969,GUAYNABO,PR,18.368342579,-66.10701659
00971,GUAYNABO,PR,18.357050789,-66.10642101
00976,TRUJILLO ALTO,PR,18.363024537,-66.0172233
00979,CAROLINA,PR,18.439088117,-66.01860382
00982,CAROLINA,PR,18.409583964,-65.99281208
00983,CAROLINA,PR,18.416333418,-65.9760569
00985,CAROLINA,PR,18.398567874,-65.95961329
00987,CAROLINA,PR,18.374007219,-65.96746421
01001,AGAWAM,MA,42.07018817,-72.62142905
01002,AMHERST,MA,42.374723226,-72.51071918
01003,AMHERST,MA,42.392512,-72.523668
01005,BARRE,MA,42.412651293,-72.11214961
01007,BELCHERTOWN,MA,42.27329748,-72.4094026
01008,BLANDFORD,MA,42.188539747,-72.95323445
01010,BRIMFIELD,MA,42.133450103,-72.2030125
01011,CHESTER,MA,42.295048192,-72.96592271
01012,CHESTERFIELD,MA,42.376478477,-72.8405442
01013,CHICOPEE,MA,42.162441678,-72.60793384
01020,CHICOPEE,MA,42.175818139,-72.5758054
01022,CHICOPEE,MA,42.194245055,-72.55978869
01026,CUMMINGTON,MA,42.467588758,-72.92011956
01027,EASTHAMPTON,MA,42.266451377,-72.67860734
01028,EAST LONGMEADOW,MA,42.066128468,-72.5040527
01030,FEEDING HILLS,MA,42.070848573,-72.67393885
01031,GILBERTVILLE,MA,42.330121107,-72.18145951
01032,GOSHEN,MA,42.456421691,-72.82322646
01033,GRANBY,MA,42.256313495,-72.51861394
01034,GRANVILLE,MA,42.067630967,-72.9256513
01035,HADLEY,MA,42.361032594,-72.56953589
01036,HAMPDEN,MA,42.066494695,-72.42971381
01038,HATFIELD,MA,42.377577142,-72.6098632
01039,HAYDENVILLE,MA,42.392069221,-72.68969971
01040,HOLYOKE,MA,42.202296028,-72.62683922
01050,HUNTINGTON,MA,42.267571304,-72.86300689
01053,LEEDS,MA,42.352102792,-72.69795443
01054,LEVERETT,MA,42.469814835,-72.49681503
01056,LUDLOW,MA,42.17340753,-72.46954771
01057,MONSON,MA,42.098615533,-72.32155595
01060,NORTHAMPTON,MA,42.32438196,-72.6364621
01062,FLORENCE,MA,42.325087843,-72.67840314
01068,OAKHAM,MA,42.349303147,-72.05376161
01069,PALMER,MA,42.170232566,-72.32463103
01070,PLAINFIELD,MA,42.515949871,-72.91925281
01071,RUSSELL,MA,42.159682,-72.85671906
01072,SHUTESBURY,MA,42.466965474,-72.42828291
01073,SOUTHAMPTON,MA,42.225595914,-72.71771884
01075,SOUTH HADLEY,MA,42.235768839,-72.58406297
01077,SOUTHWICK,MA,42.053548673,-72.76987168
01080,THREE RIVERS,MA,42.18119648,-72.36264586
01081,WALES,MA,42.059049959,-72.22534236
01082,WARE,MA,42.264944704,-72.25770529
01084,WEST CHESTERFIELD,MA,42.375672953,-72.88201777
01085,WESTFIELD,MA,42.128266038,-72.74982115
01088,WEST HATFIELD,MA,42.386328194,-72.63798934
01089,WEST SPRINGFIELD,MA,42.116016976,-72.63933857
01095,WILBRAHAM,MA,42.12824677,-72.44423998
01096,WILLIAMSBURG,MA,42.407769556,-72.76837042
01098,WORTHINGTON,MA,42.396170507,-72.93736522
01103,SPRINGFIELD,MA,42.103637822,-72.58800256
01104,SPRINGFIELD,MA,42.128884443,-72.57765114
01105,SPRINGFIELD,MA,42.1014773,-72.57828386
01106,LONGMEADOW,MA,42.051400769,-72.56652419
01107,SPRINGFIELD,MA,42.118683685,-72.60638991
01108,SPRINGFIELD,MA,42.085194031,-72.55802029
01109,SPRINGFIELD,MA,42.116714582,-72.55128837
01118,SPRINGFIELD,MA,42.09303739,-72.52788986
01119,SPRINGFIELD,MA,42.127227453,-72.51096758
01128,SPRINGFIELD,MA,42.095890484,-72.48830513
01129,SPRINGFIELD,MA,42.124110722,-72.48831499
01151,INDIAN ORCHARD,MA,42.153522348,-72.50381616
01201,PITTSFIELD,MA,42.451874951,-73.24816089
01220,ADAMS,MA,42.623615124,-73.1176154
01222,ASHLEY FALLS,MA,42.059965349,-73.31588791
01223,BECKET,MA,42.297851854,-73.08842164
01224,BERKSHIRE,MA,42.506019413,-73.19902255
01225,CHESHIRE,MA,42.561764578,-73.15392488
01226,DALTON,MA,42.469917639,-73.16529696
01230,GREAT BARRINGTON,MA,42.191229956,-73.36139051
01235,HINSDALE,MA,42.433944569,-73.08230362
01236,HOUSATONIC,MA,42.257555715,-73.37382694
01237,LANESBOROUGH,MA,42.52169539,-73.24129378
01238,LEE,MA,42.305559385,-73.24691432
01240,LENOX,MA,42.364896091,-73.27210942
01245,MONTEREY,MA,42.186835313,-73.1908618
01247,NORTH ADAMS,MA,42.698731398,-73.10799152
01253,OTIS,MA,42.228217091,-73.10917745
01254,RICHMOND,MA,42.3763592,-73.35801036
01255,SANDISFIELD,MA,42.101507749,-73.13318651
01256,SAVOY,MA,42.573758329,-73.01568747
01257,SHEFFIELD,MA,42.101870605,-73.36031321
01258,SOUTH EGREMONT,MA,42.088279689,-73.45909247
01259,SOUTHFIELD,MA,42.067147989,-73.26476853
01266,WEST STOCKBRIDGE,MA,42.3176015,-73.38394849
01267,WILLIAMSTOWN,MA,42.701852507,-73.20865127
01270,WINDSOR,MA,42.507513967,-73.04871004
01301,GREENFIELD,MA,42.600236676,-72.60098765
01330,ASHFIELD,MA,42.517652447,-72.8119545
01331,ATHOL,MA,42.584015393,-72.21659161
01337,BERNARDSTON,MA,42.683142943,-72.56236712
01338,BUCKLAND,MA,42.588158263,-72.79478445
01339,CHARLEMONT,MA,42.627326424,-72.87278721
01340,COLRAIN,MA,42.679202296,-72.71556748
01341,CONWAY,MA,42.518993416,-72.69624798
01342,DEERFIELD,MA,42.540933304,-72.60489685
01343,DRURY,MA,42.656001873,-72.9898832
01344,ERVING,MA,42.594023201,-72.45427326
01346,HEATH,MA,42.653469957,-72.82951548
01349,MILLERS FALLS,MA,42.57491566,-72.491721
01350,MONROE BRIDGE,MA,42.721330407,-72.94389341
01351,MONTAGUE,MA,42.546197195,-72.53349218
01354,GILL,MA,42.628808622,-72.52296937
01355,NEW SALEM,MA,42.508035628,-72.3295666
01360,NORTHFIELD,MA,42.684207463,-72.45159718
01364,ORANGE,MA,42.589520877,-72.29560652
01366,PETERSHAM,MA,42.488308941,-72.19072231
01367,ROWE,MA,42.700704438,-72.90545242
01368,ROYALSTON,MA,42.670163973,-72.179367
01370,SHELBURNE FALLS,MA,42.601563439,-72.7328131
01373,SOUTH DEERFIELD,MA,42.478179626,-72.61025418
01375,SUNDERLAND,MA,42.45580254,-72.56805376
01376,TURNERS FALLS,MA,42.598668747,-72.55639015
01378,WARWICK,MA,42.669666898,-72.33896971
01379,WENDELL,MA,42.540954685,-72.40592203
01380,WENDELL DEPOT,MA,42.559003211,-72.39729426
01420,FITCHBURG,MA,42.578578766,-71.80467618
01430,ASHBURNHAM,MA,42.65237141,-71.92909684
01431,ASHBY,MA,42.675398693,-71.81640755
01432,AYER,MA,42.559950962,-71.57147056
01434,DEVENS,MA,42.542420394,-71.61666183
01436,BALDWINVILLE,MA,42.605068944,-72.07049513
01440,GARDNER,MA,42.574856799,-71.9913647
01450,GROTON,MA,42.611285398,-71.560301
01451,HARVARD,MA,42.500569175,-71.57679614
01452,HUBBARDSTON,MA,42.487759931,-72.00125743
01453,LEOMINSTER,MA,42.526563806,-71.75448635
01460,LITTLETON,MA,42.538967566,-71.48384928
01462,LUNENBURG,MA,42.586817697,-71.72736449
01463,PEPPERELL,MA,42.669144126,-71.59312894
01464,SHIRLEY,MA,42.565259216,-71.64696363
01468,TEMPLETON,MA,42.554813658,-72.06266493
01469,TOWNSEND,MA,42.657294968,-71.69274818
01473,WESTMINSTER,MA,42.550465487,-71.90400562
01474,WEST TOWNSEND,MA,42.671298944,-71.74629302
01475,WINCHENDON,MA,42.677577306,-72.04714043
01501,AUBURN,MA,42.204554579,-71.8385056
01503,BERLIN,MA,42.379108887,-71.63025126
01504,BLACKSTONE,MA,42.029284098,-71.52693086
01505,BOYLSTON,MA,42.339337301,-71.7275775
01506,BROOKFIELD,MA,42.194164109,-72.10104054
01507,CHARLTON,MA,42.138948344,-71.96444661
01510,CLINTON,MA,42.417703021,-71.68038427
01515,EAST BROOKFIELD,MA,42.214617336,-72.04762735
01516,DOUGLAS,MA,42.057655394,-71.72876098
01518,FISKDALE,MA,42.123080399,-72.11477011
01519,GRAFTON,MA,42.199313726,-71.68733135
01520,HOLDEN,MA,42.338725966,-71.84197639
01521,HOLLAND,MA,42.055241726,-72.15881562
01522,JEFFERSON,MA,42.37621671,-71.86792517
01523,LANCASTER,MA,42.460339654,-71.68878335
01524,LEICESTER,MA,42.239028278,-71.91812129
01527,MILLBURY,MA,42.197224166,-71.76367617
01529,MILLVILLE,MA,42.033921995,-71.57950492
01531,NEW BRAINTREE,MA,42.320466572,-72.12589584
01532,NORTHBOROUGH,MA,42.318384642,-71.64612894
01534,NORTHBRIDGE,MA,42.147458249,-71.65369339
01535,NORTH BROOKFIELD,MA,42.2667366,-72.08112961
01536,NORTH GRAFTON,MA,42.227916959,-71.70202951
01537,NORTH OXFORD,MA,42.170188772,-71.89342589
01540,OXFORD,MA,42.114980299,-71.86773682
01541,PRINCETON,MA,42.452777593,-71.87588738
01542,ROCHDALE,MA,42.199909089,-71.90704168
01543,RUTLAND,MA,42.377397395,-71.95195903
01545,SHREWSBURY,MA,42.282629059,-71.71790409
01550,SOUTHBRIDGE,MA,42.074426661,-72.0333581
01560,SOUTH GRAFTON,MA,42.174896114,-71.68111431
01562,SPENCER,MA,42.244703145,-71.98893179
01564,STERLING,MA,42.438160563,-71.76820836
01566,STURBRIDGE,MA,42.10879713,-72.07752637
01568,UPTON,MA,42.17106849,-71.60841232
01569,UXBRIDGE,MA,42.072380281,-71.63246537
01570,WEBSTER,MA,42.048031644,-71.86500082
01571,DUDLEY,MA,42.05012984,-71.91544879
01581,WESTBOROUGH,MA,42.269656089,-71.61859776
01583,WEST BOYLSTON,MA,42.361885752,-71.78457224
01585,WEST BROOKFIELD,MA,42.235735785,-72.15913102
01588,WHITINSVILLE,MA,42.116262227,-71.66445826
01590,SUTTON,MA,42.145169694,-71.74174728
01602,WORCESTER,MA,42.270206574,-71.84339352
01603,WORCESTER,MA,42.244612728,-71.83795152
01604,WORCESTER,MA,42.253896549,-71.77243414
01605,WORCESTER,MA,42.289376746,-71.7888588
01606,WORCESTER,MA,42.313500058,-71.79503473
01607,WORCESTER,MA,42.229680854,-71.79591146
01608,WORCESTER,MA,42.261928659,-71.80122733
01609,WORCESTER,MA,42.274844307,-71.81748107
01610,WORCESTER,MA,42.249990637,-71.80953885
01611,CHERRY VALLEY,MA,42.237240658,-71.87336773
01612,PAXTON,MA,42.304819895,-71.92081926
01701,FRAMINGHAM,MA,42.319542911,-71.42463031
01702,FRAMINGHAM,MA,42.283361888,-71.42536338
01718,ACTON,MA,42.519000804,-71.42791173
01719,BOXBOROUGH,MA,42.487685652,-71.51897326
01720,ACTON,MA,42.484289146,-71.44010425
01721,ASHLAND,MA,42.253836115,-71.45894164
01730,BEDFORD,MA,42.496022305,-71.27393539
01731,HANSCOM AFB,MA,42.452913294,-71.2805533
01740,BOLTON,MA,42.436925567,-71.60686206
01741,CARLISLE,MA,42.528161383,-71.35275664
01742,CONCORD,MA,42.456404277,-71.37692399
01745,FAYVILLE,MA,42.291811407,-71.5029211
01746,HOLLISTON,MA,42.20239242,-71.43802254
01747,HOPEDALE,MA,42.12605385,-71.53640555
01748,HOPKINTON,MA,42.224451249,-71.52844026
01749,HUDSON,MA,42.391177529,-71.56095195
01752,MARLBOROUGH,MA,42.349471032,-71.54327181
01754,MAYNARD,MA,42.431153756,-71.45339178
01756,MENDON,MA,42.096037323,-71.54982645
01757,MILFORD,MA,42.151697562,-71.52456994
01760,NATICK,MA,42.287155533,-71.35958868
01770,SHERBORN,MA,42.233727237,-71.37911864
01772,SOUTHBOROUGH,MA,42.293362629,-71.52934307
01773,LINCOLN,MA,42.425508778,-71.31386384
01775,STOW,MA,42.431091687,-71.51413061
01776,SUDBURY,MA,42.383647211,-71.42561218
01778,WAYLAND,MA,42.348412117,-71.35754266
01801,WOBURN,MA,42.485278346,-71.15600391
01803,BURLINGTON,MA,42.504798539,-71.19914618
01810,ANDOVER,MA,42.652780258,-71.16041781
01821,BILLERICA,MA,42.550905967,-71.25365366
01824,CHELMSFORD,MA,42.59338908,-71.35697289
01826,DRACUT,MA,42.676830389,-71.31862422
01827,DUNSTABLE,MA,42.673090934,-71.50005272
01830,HAVERHILL,MA,42.7858198,-71.07198193
01832,HAVERHILL,MA,42.779378371,-71.11023525
01833,GEORGETOWN,MA,42.726919588,-70.98013654
01834,GROVELAND,MA,42.754365712,-71.02381
01835,HAVERHILL,MA,42.758037592,-71.0852574
01840,LAWRENCE,MA,42.707543785,-71.15974883
01841,LAWRENCE,MA,42.711620675,-71.1667621
01843,LAWRENCE,MA,42.691095553,-71.15917654
01844,METHUEN,MA,42.729767513,-71.17864455
01845,NORTH ANDOVER,MA,42.681990598,-71.10711885
01850,LOWELL,MA,42.656548129,-71.3049499
01851,LOWELL,MA,42.631400607,-71.33429128
01852,LOWELL,MA,42.635610667,-71.29957456
01854,LOWELL,MA,42.649016373,-71.33720111
01860,MERRIMAC,MA,42.834355964,-71.00324313
01862,NORTH BILLERICA,MA,42.576297908,-71.29112045
01863,NORTH CHELMSFORD,MA,42.635153924,-71.38749349
01864,NORTH READING,MA,42.581199803,-71.09476496
01867,READING,MA,42.526176413,-71.1083464
01876,TEWKSBURY,MA,42.606309537,-71.22327389
01879,TYNGSBORO,MA,42.667786152,-71.41918628
01880,WAKEFIELD,MA,42.501310375,-71.06755271
01886,WESTFORD,MA,42.588939522,-71.43918649
01887,WILMINGTON,MA,42.558469167,-71.17259236
01890,WINCHESTER,MA,42.453568476,-71.14372826
01901,LYNN,MA,42.463162251,-70.94562647
01902,LYNN,MA,42.469155674,-70.94055237
01904,LYNN,MA,42.487608053,-70.96211575
01905,LYNN,MA,42.464608346,-70.97244219
01906,SAUGUS,MA,42.463932285,-71.01276121
01907,SWAMPSCOTT,MA,42.474857472,-70.90876635
01908,NAHANT,MA,42.425829504,-70.92752874
01913,AMESBURY,MA,42.854916437,-70.93601639
01915,BEVERLY,MA,42.560372374,-70.87738951
01921,BOXFORD,MA,42.67886163,-71.00969099
01922,BYFIELD,MA,42.753797308,-70.92795518
01923,DANVERS,MA,42.56947867,-70.94444509
01929,ESSEX,MA,42.630754725,-70.78175274
01930,GLOUCESTER,MA,42.621553504,-70.67208341
01938,IPSWICH,MA,42.681504861,-70.84919846
01940,LYNNFIELD,MA,42.528731255,-71.02927099
01944,MANCHESTER,MA,42.578667787,-70.76612988
01945,MARBLEHEAD,MA,42.499237021,-70.86324858
01949,MIDDLETON,MA,42.595959723,-71.0106225
01950,NEWBURYPORT,MA,42.812857751,-70.88274783
01951,NEWBURY,MA,42.790734036,-70.8411908
01952,SALISBURY,MA,42.84860514,-70.85085578
01960,PEABODY,MA,42.533231486,-70.95926161
01966,ROCKPORT,MA,42.658373209,-70.61942019
01969,ROWLEY,MA,42.714717929,-70.90845696
01970,SALEM,MA,42.514559392,-70.90097288
01982,SOUTH HAMILTON,MA,42.618291311,-70.85688992
01983,TOPSFIELD,MA,42.641375054,-70.94783224
01984,WENHAM,MA,42.601771398,-70.88796863
01985,WEST NEWBURY,MA,42.795310302,-70.9776761
02019,BELLINGHAM,MA,42.073339825,-71.4755785
02021,CANTON,MA,42.164133325,-71.13134593
02025,COHASSET,MA,42.239430332,-70.81308493
02026,DEDHAM,MA,42.244300205,-71.16592997
02030,DOVER,MA,42.234582219,-71.28320848
02032,EAST WALPOLE,MA,42.155484108,-71.21691304
02035,FOXBORO,MA,42.063355968,-71.24200254
02038,FRANKLIN,MA,42.089932319,-71.40543753
02043,HINGHAM,MA,42.225026285,-70.89728573
02045,HULL,MA,42.28379853,-70.87270581
02048,MANSFIELD,MA,42.023446238,-71.21341573
02050,MARSHFIELD,MA,42.106567484,-70.70190787
02052,MEDFIELD,MA,42.185588375,-71.30404135
02053,MEDWAY,MA,42.151841232,-71.42339828
02054,MILLIS,MA,42.16839071,-71.36361577
02056,NORFOLK,MA,42.117972152,-71.33278757
02061,NORWELL,MA,42.159804302,-70.82238047
02062,NORWOOD,MA,42.187385824,-71.20299687
02066,SCITUATE,MA,42.203737754,-70.75142386
02067,SHARON,MA,42.112320135,-71.17810537
02071,SOUTH WALPOLE,MA,42.100415917,-71.27206389
02072,STOUGHTON,MA,42.126775267,-71.10760261
02081,WALPOLE,MA,42.146859269,-71.2500906
02090,WESTWOOD,MA,42.217016225,-71.20736627
02093,WRENTHAM,MA,42.058308685,-71.34406885
02108,BOSTON,MA,42.355711982,-71.06724095
02109,BOSTON,MA,42.363143766,-71.0536417
02110,BOSTON,MA,42.357682436,-71.05392759
02111,BOSTON,MA,42.351795746,-71.06179505
02113,BOSTON,MA,42.365317714,-71.05514348
02114,BOSTON,MA,42.362507682,-71.06520113
02115,BOSTON,MA,42.343092988,-71.09096194
02116,BOSTON,MA,42.34950981,-71.07468473
02118,BOSTON,MA,42.340467198,-71.07313441
02119,ROXBURY,MA,42.323015126,-71.08707579
02120,ROXBURY CROSSING,MA,42.332802843,-71.09718351
02121,DORCHESTER,MA,42.308000264,-71.08275716
02122,DORCHESTER,MA,42.297006988,-71.0575133
02124,DORCHESTER CENTER,MA,42.287470791,-71.07228147
02125,DORCHESTER,MA,42.316708509,-71.05922314
02126,MATTAPAN,MA,42.275623633,-71.09095817
02127,SOUTH BOSTON,MA,42.334750039,-71.04495537
02128,EAST BOSTON,MA,42.376704599,-71.02984326
02129,CHARLESTOWN,MA,42.378016712,-71.06210516
02130,JAMAICA PLAIN,MA,42.312601488,-71.11096864
02131,ROSLINDALE,MA,42.28329758,-71.12894893
02132,WEST ROXBURY,MA,42.278111531,-71.15769044
02134,ALLSTON,MA,42.352695151,-71.13287153
02135,BRIGHTON,MA,42.346843685,-71.15124124
02136,HYDE PARK,MA,42.256087674,-71.12330984
02138,CAMBRIDGE,MA,42.378674862,-71.12769162
02139,CAMBRIDGE,MA,42.365453765,-71.10479013
02140,CAMBRIDGE,MA,42.392780203,-71.13201942
02141,CAMBRIDGE,MA,42.370918754,-71.08264326
02142,CAMBRIDGE,MA,42.363563988,-71.08308921
02143,SOMERVILLE,MA,42.382758598,-71.10172671
02144,SOMERVILLE,MA,42.400338706,-71.12183033
02145,SOMERVILLE,MA,42.391593826,-71.09068965
02148,MALDEN,MA,42.429909166,-71.05863078
02149,EVERETT,MA,42.411020693,-71.05166084
02150,CHELSEA,MA,42.396497728,-71.03233497
02151,REVERE,MA,42.415111844,-71.00336267
02152,WINTHROP,MA,42.377615614,-70.97935396
02155,MEDFORD,MA,42.416197565,-71.10509639
02163,BOSTON,MA,42.365055924,-71.11970549
02169,QUINCY,MA,42.247882316,-70.99929177
02170,QUINCY,MA,42.267285641,-71.01877333
02171,QUINCY,MA,42.283156449,-71.02665899
02176,MELROSE,MA,42.456683728,-71.06378608
02180,STONEHAM,MA,42.481823295,-71.09739958
02184,BRAINTREE,MA,42.208174053,-70.99528617
02186,MILTON,MA,42.25347243,-71.07776373
02188,WEYMOUTH,MA,42.207505149,-70.95653653
02189,EAST WEYMOUTH,MA,42.211451097,-70.93136616
02190,SOUTH WEYMOUTH,MA,42.169193656,-70.94911072
02191,NORTH WEYMOUTH,MA,42.245746267,-70.94110209
02199,BOSTON,MA,42.348785151,-71.08130464
02210,BOSTON,MA,42.350543561,-71.04566749
02215,BOSTON,MA,42.346030513,-71.10036568
02301,BROCKTON,MA,42.082190254,-71.03397864
02302,BROCKTON,MA,42.08853544,-71.00192454
02322,AVON,MA,42.125031845,-71.04257689
02324,BRIDGEWATER,MA,41.981755022,-70.97342104
02330,CARVER,MA,41.889268856,-70.76868557
02332,DUXBURY,MA,42.038220407,-70.71646519
02333,EAST BRIDGEWATER,MA,42.032279715,-70.943778
02338,HALIFAX,MA,41.998080665,-70.84976124
02339,HANOVER,MA,42.124564888,-70.85531942
02341,HANSON,MA,42.060717597,-70.86816631
02343,HOLBROOK,MA,42.147384205,-71.00856093
02346,MIDDLEBORO,MA,41.892119711,-70.89330609
02347,LAKEVILLE,MA,41.84013027,-70.95618224
02351,ABINGTON,MA,42.116819805,-70.95538573
02356,NORTH EASTON,MA,42.055839767,-71.11474909
02359,PEMBROKE,MA,42.064529277,-70.80188112
02360,PLYMOUTH,MA,41.900895776,-70.62808417
02364,KINGSTON,MA,41.991562956,-70.74181079
02367,PLYMPTON,MA,41.96545048,-70.80507992
02368,RANDOLPH,MA,42.174580092,-71.05212068
02370,ROCKLAND,MA,42.127907073,-70.91234677
02375,SOUTH EASTON,MA,42.025623391,-71.09797683
02379,WEST BRIDGEWATER,MA,42.026250869,-71.015198
02382,WHITMAN,MA,42.080841419,-70.93929124
02420,LEXINGTON,MA,42.455568873,-71.2178201
02421,LEXINGTON,MA,42.434189461,-71.23179594
02445,BROOKLINE,MA,42.332576427,-71.12895016
02446,BROOKLINE,MA,42.342919759,-71.12123718
02451,WALTHAM,MA,42.394447451,-71.24661815
02452,WALTHAM,MA,42.395065143,-71.2250685
02453,WALTHAM,MA,42.370000528,-71.23643323
02458,NEWTON,MA,42.355083461,-71.19001076
02459,NEWTON CENTER,MA,42.319410615,-71.19146992
02460,NEWTONVILLE,MA,42.352844642,-71.20803167
02461,NEWTON HIGHLANDS,MA,42.318174446,-71.20838267
02462,NEWTON LOWER FALLS,MA,42.329292052,-71.25743203
02464,NEWTON UPPER FALLS,MA,42.312736524,-71.2209023
02465,WEST NEWTON,MA,42.352065971,-71.22738614
02466,AUBURNDALE,MA,42.344800802,-71.24671228
02467,CHESTNUT HILL,MA,42.315442299,-71.1631057
02468,WABAN,MA,42.327061972,-71.22971253
02472,WATERTOWN,MA,42.370855449,-71.18053504
02474,ARLINGTON,MA,42.41656666,-71.15313033
02476,ARLINGTON,MA,42.417863896,-71.174662
02478,BELMONT,MA,42.389451399,-71.17443852
02481,WELLESLEY HILLS,MA,42.314193825,-71.27363583
02482,WELLESLEY,MA,42.298253893,-71.29977331
02492,NEEDHAM,MA,42.278954459,-71.23479795
02493,WESTON,MA,42.360080039,-71.29953466
02494,NEEDHAM HEIGHTS,MA,42.298471494,-71.23134783
02532,BUZZARDS BAY,MA,41.746111134,-70.60561415
02535,CHILMARK,MA,41.353702704,-70.74987438
02536,EAST FALMOUTH,MA,41.583575673,-70.56505306
02537,EAST SANDWICH,MA,41.727568053,-70.44099455
02538,EAST WAREHAM,MA,41.778281164,-70.65043974
02539,EDGARTOWN,MA,41.391048563,-70.54249432
02540,FALMOUTH,MA,41.56400922,-70.61985007
02542,BUZZARDS BAY,MA,41.658020633,-70.57960796
02543,WOODS HOLE,MA,41.528191397,-70.66317396
02554,NANTUCKET,MA,41.271897595,-70.10526835
02556,NORTH FALMOUTH,MA,41.639957434,-70.62442784
02559,POCASSET,MA,41.69255434,-70.60822658
02562,SAGAMORE BEACH,MA,41.790627616,-70.53479328
02563,SANDWICH,MA,41.718946036,-70.47649419
02568,VINEYARD HAVEN,MA,41.439442495,-70.61418831
02571,WAREHAM,MA,41.753435538,-70.71231872
02576,WEST WAREHAM,MA,41.778718599,-70.758099
02601,HYANNIS,MA,41.654873913,-70.29822258
02630,BARNSTABLE,MA,41.697832527,-70.29871377
02631,BREWSTER,MA,41.749986784,-70.06933154
02632,CENTERVILLE,MA,41.660479028,-70.34835128
02633,CHATHAM,MA,41.687293022,-69.97954398
02635,COTUIT,MA,41.63218635,-70.44141647
02638,DENNIS,MA,41.731178014,-70.18985594
02639,DENNIS PORT,MA,41.664783218,-70.13447127
02642,EASTHAM,MA,41.8390359,-69.98571581
02644,FORESTDALE,MA,41.683412952,-70.51157405
02645,HARWICH,MA,41.701702128,-70.05808015
02646,HARWICH PORT,MA,41.670434624,-70.07493108
02648,MARSTONS MILLS,MA,41.668459068,-70.41622444
02649,MASHPEE,MA,41.615177445,-70.48681801
02650,NORTH CHATHAM,MA,41.702822124,-69.96726168
02653,ORLEANS,MA,41.780458885,-69.98232316
02655,OSTERVILLE,MA,41.635109587,-70.38475355
02657,PROVINCETOWN,MA,42.052895963,-70.18681157
02659,SOUTH CHATHAM,MA,41.680809869,-70.02310886
02660,SOUTH DENNIS,MA,41.708262301,-70.15888974
02664,SOUTH YARMOUTH,MA,41.669812458,-70.19745059
02667,WELLFLEET,MA,41.926489736,-70.01930312
02668,WEST BARNSTABLE,MA,41.701071938,-70.37647064
02670,WEST DENNIS,MA,41.662197071,-70.16778482
02671,WEST HARWICH,MA,41.665628161,-70.11242057
02673,WEST YARMOUTH,MA,41.657751717,-70.23999038
02675,YARMOUTH PORT,MA,41.706680307,-70.22098761
02702,ASSONET,MA,41.79658029,-71.05951618
02703,ATTLEBORO,MA,41.929518978,-71.30139045
02715,DIGHTON,MA,41.817727529,-71.14681058
02717,EAST FREETOWN,MA,41.761648735,-70.96353713
02718,EAST TAUNTON,MA,41.870922743,-71.02019613
02719,FAIRHAVEN,MA,41.640759327,-70.88754483
02720,FALL RIVER,MA,41.721235539,-71.1383029
02721,FALL RIVER,MA,41.687829163,-71.15658172
02723,FALL RIVER,MA,41.692616828,-71.13270624
02724,FALL RIVER,MA,41.68506278,-71.17469023
02725,SOMERSET,MA,41.723293247,-71.17671463
02726,SOMERSET,MA,41.756333132,-71.14829355
02738,MARION,MA,41.711572462,-70.75683447
02739,MATTAPOISETT,MA,41.661854934,-70.81264269
02740,NEW BEDFORD,MA,41.635708098,-70.93754563
02743,ACUSHNET,MA,41.702246268,-70.90668373
02744,NEW BEDFORD,MA,41.612105505,-70.91586616
02745,NEW BEDFORD,MA,41.693244416,-70.93554316
02746,NEW BEDFORD,MA,41.660528384,-70.93151305
02747,NORTH DARTMOUTH,MA,41.641651187,-70.99913755
02748,SOUTH DARTMOUTH,MA,41.589615529,-70.95541511
02760,NORTH ATTLEBORO,MA,41.976741408,-71.32997292
02762,PLAINVILLE,MA,42.011836044,-71.32476103
02763,ATTLEBORO FALLS,MA,41.966277792,-71.30881368
02764,NORTH DIGHTON,MA,41.856195633,-71.15019763
02766,NORTON,MA,41.970802495,-71.18934747
02767,RAYNHAM,MA,41.928348045,-71.04076775
02769,REHOBOTH,MA,41.842644551,-71.24729653
02770,ROCHESTER,MA,41.760367116,-70.83836385
02771,SEEKONK,MA,41.837620369,-71.32286794
02777,SWANSEA,MA,41.747303788,-71.21219412
02779,BERKLEY,MA,41.835548935,-71.07848461
02780,TAUNTON,MA,41.904294385,-71.10323318
02790,WESTPORT,MA,41.615549579,-71.08753411
02804,ASHAWAY,RI,41.429186512,-71.77948646
02806,BARRINGTON,RI,41.744602741,-71.31836639
02808,BRADFORD,RI,41.403395959,-71.74727139
02809,BRISTOL,RI,41.684757089,-71.26904126
02812,CAROLINA,RI,41.473582398,-71.66034326
02813,CHARLESTOWN,RI,41.396173928,-71.66015551
02814,CHEPACHET,RI,41.900518464,-71.67950834
02815,CLAYVILLE,RI,41.773859777,-71.67058613
02816,COVENTRY,RI,41.692020126,-71.57496625
02817,WEST GREENWICH,RI,41.640510702,-71.64125274
02818,EAST GREENWICH,RI,41.651780525,-71.4777545
02822,EXETER,RI,41.561678535,-71.58027535
02825,FOSTER,RI,41.782751944,-71.72325103
02827,GREENE,RI,41.7020283,-71.72058641
02828,GREENVILLE,RI,41.872307427,-71.55740344
02830,HARRISVILLE,RI,41.972830557,-71.65458581
02831,HOPE,RI,41.741539571,-71.57606945
02832,HOPE VALLEY,RI,41.505805681,-71.72168426
02833,HOPKINTON,RI,41.473485162,-71.77633757
02835,JAMESTOWN,RI,41.515811025,-71.37629906
02836,KENYON,RI,41.450170128,-71.62019717
02837,LITTLE COMPTON,RI,41.513875654,-71.16337985
02838,MANVILLE,RI,41.968018118,-71.4736262
02839,MAPLEVILLE,RI,41.94746509,-71.64541333
02840,NEWPORT,RI,41.489852929,-71.31147699
02842,MIDDLETOWN,RI,41.518621823,-71.28703075
02852,NORTH KINGSTOWN,RI,41.589571215,-71.4608249
02857,NORTH SCITUATE,RI,41.838529641,-71.62381849
02858,OAKLAND,RI,41.961152228,-71.64785366
02859,PASCOAG,RI,41.962778882,-71.71438597
02860,PAWTUCKET,RI,41.873157176,-71.3899789
02861,PAWTUCKET,RI,41.881545745,-71.35568531
02863,CENTRAL FALLS,RI,41.889052541,-71.39341627
02864,CUMBERLAND,RI,41.950581855,-71.4191774
02865,LINCOLN,RI,41.908627579,-71.43571331
02871,PORTSMOUTH,RI,41.593162325,-71.25116374
02874,SAUNDERSTOWN,RI,41.512936823,-71.45993838
02875,SHANNOCK,RI,41.453262221,-71.63963123
02876,SLATERSVILLE,RI,41.999450061,-71.57757324
02877,SLOCUM,RI,41.54157975,-71.50960508
02878,TIVERTON,RI,41.634041486,-71.17741816
02879,WAKEFIELD,RI,41.433930971,-71.52122251
02881,KINGSTON,RI,41.477782038,-71.52577964
02882,NARRAGANSETT,RI,41.431799189,-71.4628472
02885,WARREN,RI,41.726201288,-71.27062205
02886,WARWICK,RI,41.703291423,-71.45720763
02888,WARWICK,RI,41.749995294,-71.40737208
02889,WARWICK,RI,41.709857473,-71.39424885
02891,WESTERLY,RI,41.365802825,-71.8091224
02892,WEST KINGSTON,RI,41.510510603,-71.6019287
02893,WEST WARWICK,RI,41.70089433,-71.51743357
02894,WOOD RIVER JUNCTION,RI,41.442779059,-71.7094914
02895,WOONSOCKET,RI,42.003018076,-71.50446651
02896,NORTH SMITHFIELD,RI,41.98616975,-71.55125228
02898,WYOMING,RI,41.518338276,-71.67651572
02903,PROVIDENCE,RI,41.821913147,-71.41484647
02904,PROVIDENCE,RI,41.859658687,-71.43699511
02905,PROVIDENCE,RI,41.786523365,-71.40331731
02906,PROVIDENCE,RI,41.836707762,-71.39519282
02907,PROVIDENCE,RI,41.801195737,-71.42398697
02908,PROVIDENCE,RI,41.83804309,-71.43685866
02909,PROVIDENCE,RI,41.817676698,-71.44839214
02910,CRANSTON,RI,41.776466264,-71.43772331
02911,NORTH PROVIDENCE,RI,41.853829338,-71.4745031
02914,EAST PROVIDENCE,RI,41.813516471,-71.36785931
02915,RIVERSIDE,RI,41.772104175,-71.3543271
02916,RUMFORD,RI,41.842530888,-71.35537524
02917,SMITHFIELD,RI,41.891166421,-71.51633813
02919,JOHNSTON,RI,41.826249447,-71.49847774
02920,CRANSTON,RI,41.774955256,-71.46523056
02921,CRANSTON,RI,41.765910627,-71.5070049
03031,AMHERST,NH,42.855117478,-71.60506675
03032,AUBURN,NH,42.992501001,-71.34268744
03033,BROOKLINE,NH,42.740113934,-71.66836755
03034,CANDIA,NH,43.058850776,-71.30858622
03036,CHESTER,NH,42.9676469,-71.24081523
03037,DEERFIELD,NH,43.137897924,-71.25710974
03038,DERRY,NH,42.887704744,-71.30188878
03042,EPPING,NH,43.04614413,-71.07746891
03043,FRANCESTOWN,NH,42.99341122,-71.81491372
03044,FREMONT,NH,42.986879368,-71.12553695
03045,GOFFSTOWN,NH,43.017859011,-71.55966672
03046,DUNBARTON,NH,43.102819703,-71.60739149
03047,GREENFIELD,NH,42.939804604,-71.86995242
03048,GREENVILLE,NH,42.747482984,-71.77755963
03049,HOLLIS,NH,42.74651367,-71.57601169
03051,HUDSON,NH,42.765416205,-71.41614581
03052,LITCHFIELD,NH,42.842447405,-71.45225142
03053,LONDONDERRY,NH,42.870140334,-71.37788816
03054,MERRIMACK,NH,42.862621169,-71.5080346
03055,MILFORD,NH,42.826496198,-71.65914363
03057,MONT VERNON,NH,42.896551001,-71.67925274
03060,NASHUA,NH,42.74582864,-71.46135618
03062,NASHUA,NH,42.721911016,-71.48779304
03063,NASHUA,NH,42.775197305,-71.51312442
03064,NASHUA,NH,42.773710437,-71.4714551
03070,NEW BOSTON,NH,42.980876708,-71.67896044
03071,NEW IPSWICH,NH,42.750402934,-71.86761076
03076,PELHAM,NH,42.732736502,-71.3219394
03077,RAYMOND,NH,43.030770775,-71.19329598
03079,SALEM,NH,42.784437416,-71.2175723
03082,LYNDEBOROUGH,NH,42.89556516,-71.77365108
03084,TEMPLE,NH,42.820640981,-71.84999611
03086,WILTON,NH,42.833301281,-71.75672973
03087,WINDHAM,NH,42.806587411,-71.30447148
03101,MANCHESTER,NH,42.990163159,-71.46398494
03102,MANCHESTER,NH,43.001778811,-71.48592113
03103,MANCHESTER,NH,42.970151733,-71.44858269
03104,MANCHESTER,NH,43.004779528,-71.44609589
03106,HOOKSETT,NH,43.063496746,-71.44379014
03109,MANCHESTER,NH,42.965548133,-71.40837573
03110,BEDFORD,NH,42.941686539,-71.5175156
03216,ANDOVER,NH,43.4407304,-71.79133104
03217,ASHLAND,NH,43.707526326,-71.6328627
03218,BARNSTEAD,NH,43.336521285,-71.28746519
03220,BELMONT,NH,43.470892866,-71.47865364
03221,BRADFORD,NH,43.2682121,-71.9569231
03222,BRISTOL,NH,43.617002092,-71.75291791
03223,CAMPTON,NH,43.831155533,-71.66246776
03224,CANTERBURY,NH,43.348935863,-71.54788062
03225,CENTER BARNSTEAD,NH,43.371156554,-71.24103243
03226,CENTER HARBOR,NH,43.695343329,-71.51333134
03227,CENTER SANDWICH,NH,43.805120246,-71.42589609
03229,CONTOOCOOK,NH,43.206979651,-71.69786364
03230,DANBURY,NH,43.523151796,-71.86538202
03233,ELKINS,NH,43.4145244,-71.9479694
03234,EPSOM,NH,43.212843549,-71.35205045
03235,FRANKLIN,NH,43.447462351,-71.65166074
03237,GILMANTON,NH,43.424682585,-71.40115328
03240,GRAFTON,NH,43.574922652,-71.96298251
03241,HEBRON,NH,43.703172362,-71.80877593
03242,HENNIKER,NH,43.17707225,-71.81440065
03243,HILL,NH,43.530290162,-71.74007818
03244,HILLSBOROUGH,NH,43.117083341,-71.90311308
03245,HOLDERNESS,NH,43.75387022,-71.62613447
03246,LACONIA,NH,43.54984074,-71.46806857
03249,GILFORD,NH,43.560232787,-71.39836991
03251,LINCOLN,NH,44.050607745,-71.67478287
03253,MEREDITH,NH,43.640899547,-71.49706771
03254,MOULTONBOROUGH,NH,43.704781756,-71.38811704
03255,NEWBURY,NH,43.320727648,-72.01822626
03256,NEW HAMPTON,NH,43.630549859,-71.62664936
03257,NEW LONDON,NH,43.412859859,-71.99359951
03258,CHICHESTER,NH,43.254700723,-71.40194431
03259,NORTH SANDWICH,NH,43.864810964,-71.3860625
03261,NORTHWOOD,NH,43.214004968,-71.20882386
03262,NORTH WOODSTOCK,NH,44.005001919,-71.69117107
03263,PITTSFIELD,NH,43.301013024,-71.32089881
03264,PLYMOUTH,NH,43.750194405,-71.69956003
03266,RUMNEY,NH,43.799459699,-71.84845853
03268,SALISBURY,NH,43.388415813,-71.73580498
03269,SANBORNTON,NH,43.524720876,-71.57882697
03275,SUNCOOK,NH,43.14781415,-71.4431097
03276,TILTON,NH,43.44078266,-71.58276167
03278,WARNER,NH,43.281986204,-71.81307752
03279,WARREN,NH,43.932962055,-71.89092664
03280,WASHINGTON,NH,43.165744557,-72.0931344
03281,WEARE,NH,43.079385963,-71.71698105
03282,WENTWORTH,NH,43.859905046,-71.913596
03284,SPRINGFIELD,NH,43.511168042,-72.0399111
03285,THORNTON,NH,43.899726848,-71.6457678
03287,WILMOT,NH,43.439987099,-71.90959024
03290,NOTTINGHAM,NH,43.128222802,-71.10069083
03291,WEST NOTTINGHAM,NH,43.186424,-71.139933
03301,CONCORD,NH,43.21254268,-71.53222005
03303,CONCORD,NH,43.278362812,-71.61390093
03304,BOW,NH,43.136294343,-71.54284396
03307,LOUDON,NH,43.305168747,-71.46072821
03431,KEENE,NH,42.940687925,-72.29046854
03440,ANTRIM,NH,43.054218965,-71.95374743
03441,ASHUELOT,NH,42.779630683,-72.430823
03442,BENNINGTON,NH,43.011532284,-71.90747958
03443,CHESTERFIELD,NH,42.893313422,-72.46942678
03444,DUBLIN,NH,42.89533829,-72.0353925
03445,SULLIVAN,NH,43.004190114,-72.21415546
03446,SWANZEY,NH,42.86615092,-72.29791056
03447,FITZWILLIAM,NH,42.76074328,-72.14650852
03448,GILSUM,NH,43.039764017,-72.26416264
03449,HANCOCK,NH,42.976181229,-71.97785683
03450,HARRISVILLE,NH,42.938456551,-72.10294099
03451,HINSDALE,NH,42.804922206,-72.50546968
03452,JAFFREY,NH,42.818594583,-72.02729792
03455,MARLBOROUGH,NH,42.896912571,-72.19313639
03456,MARLOW,NH,43.12928418,-72.20916325
03457,NELSON,NH,43.001357404,-72.13440472
03458,PETERBOROUGH,NH,42.882740228,-71.94650065
03461,RINDGE,NH,42.74998383,-72.01429343
03462,SPOFFORD,NH,42.911644532,-72.41356367
03464,STODDARD,NH,43.084093656,-72.10180596
03465,TROY,NH,42.827043487,-72.18618299
03466,WEST CHESTERFIELD,NH,42.904148687,-72.50966967
03467,WESTMORELAND,NH,42.968447756,-72.43248212
03470,WINCHESTER,NH,42.774086599,-72.35894101
03561,LITTLETON,NH,44.311308799,-71.77693179
03570,BERLIN,NH,44.475838424,-71.17668814
03574,BETHLEHEM,NH,44.285102199,-71.68876453
03576,COLEBROOK,NH,44.901251494,-71.46463279
03579,ERROL,NH,44.802644167,-71.16164345
03580,FRANCONIA,NH,44.189911857,-71.7572007
03581,GORHAM,NH,44.397854042,-71.18098704
03582,GROVETON,NH,44.600225991,-71.49305881
03583,JEFFERSON,NH,44.401685911,-71.47216359
03584,LANCASTER,NH,44.490977247,-71.55856851
03585,LISBON,NH,44.230252381,-71.89786228
03586,SUGAR HILL,NH,44.221012754,-71.79384038
03588,MILAN,NH,44.580712131,-71.22188261
03590,NORTH STRATFORD,NH,44.71544768,-71.57582833
03592,PITTSBURG,NH,45.065071249,-71.37027427
03593,RANDOLPH,NH,44.375116794,-71.29598656
03598,WHITEFIELD,NH,44.373940493,-71.61862129
03601,ACWORTH,NH,43.223329911,-72.3124564
03602,ALSTEAD,NH,43.135569719,-72.33631912
03603,CHARLESTOWN,NH,43.262085063,-72.39586252
03605,LEMPSTER,NH,43.237543627,-72.19090812
03607,SOUTH ACWORTH,NH,43.192569278,-72.26920751
03608,WALPOLE,NH,43.07501137,-72.4106063
03609,NORTH WALPOLE,NH,43.142281011,-72.44773738
03740,BATH,NH,44.162973501,-71.97408995
03741,CANAAN,NH,43.666679842,-72.04060973
03743,CLAREMONT,NH,43.370906702,-72.34322221
03745,CORNISH,NH,43.471586511,-72.33516581
03748,ENFIELD,NH,43.616027747,-72.12515107
03750,ETNA,NH,43.707114663,-72.20434675
03752,GOSHEN,NH,43.302681332,-72.12607874
03753,GRANTHAM,NH,43.505225514,-72.14086506
03755,HANOVER,NH,43.710878798,-72.26377404
03765,HAVERHILL,NH,44.035824012,-72.0531502
03766,LEBANON,NH,43.645447673,-72.2472889
03768,LYME,NH,43.809382536,-72.15301727
03770,MERIDEN,NH,43.529161543,-72.27276731
03771,MONROE,NH,44.278510465,-72.02265226
03773,NEWPORT,NH,43.362496825,-72.17998498
03774,NORTH HAVERHILL,NH,44.082437254,-72.0069177
03777,ORFORD,NH,43.89849203,-72.09669599
03779,PIERMONT,NH,43.986604333,-72.06233541
03780,PIKE,NH,44.033213087,-71.98956371
03781,PLAINFIELD,NH,43.553982491,-72.30909172
03782,SUNAPEE,NH,43.384957988,-72.09241101
03784,WEST LEBANON,NH,43.657414295,-72.30131265
03785,WOODSVILLE,NH,44.134586288,-71.99702453
03801,PORTSMOUTH,NH,43.064134374,-70.77407435
03809,ALTON,NH,43.454092662,-71.21508971
03810,ALTON BAY,NH,43.513368597,-71.27451947
03811,ATKINSON,NH,42.837967429,-71.15698269
03812,BARTLETT,NH,44.112951211,-71.31616811
03813,CENTER CONWAY,NH,44.01416236,-71.04691046
03814,CENTER OSSIPEE,NH,43.772628291,-71.15179588
03816,CENTER TUFTONBORO,NH,43.677561535,-71.23838296
03817,CHOCORUA,NH,43.860651887,-71.21662388
03818,CONWAY,NH,43.973015069,-71.13661005
03819,DANVILLE,NH,42.926421727,-71.1224736
03820,DOVER,NH,43.190617762,-70.87976999
03823,MADBURY,NH,43.174176186,-70.93893461
03824,DURHAM,NH,43.131436622,-70.92553215
03825,BARRINGTON,NH,43.208635156,-71.03802624
03826,EAST HAMPSTEAD,NH,42.888782016,-71.13343872
03827,EAST KINGSTON,NH,42.915099029,-70.99709675
03830,EAST WAKEFIELD,NH,43.625008759,-70.99207043
03833,EXETER,NH,42.977131452,-70.96861139
03835,FARMINGTON,NH,43.379943807,-71.06363037
03836,FREEDOM,NH,43.814127495,-71.07902822
03837,GILMANTON IRON WORKS,NH,43.425140646,-71.31427073
03838,GLEN,NH,44.118590476,-71.20230025
03839,ROCHESTER,NH,43.269686122,-70.99021504
03840,GREENLAND,NH,43.034636739,-70.84533306
03841,HAMPSTEAD,NH,42.883299641,-71.17613849
03842,HAMPTON,NH,42.93363525,-70.82180589
03843,HAMPTON,NH,42.9442,-70.8459
03844,HAMPTON FALLS,NH,42.926666238,-70.88670891
03845,INTERVALE,NH,44.096491073,-71.13877704
03846,JACKSON,NH,44.159010786,-71.172891
03848,KINGSTON,NH,42.915724166,-71.06322922
03849,MADISON,NH,43.9141419,-71.13518181
03851,MILTON,NH,43.424491675,-71.00453788
03852,MILTON MILLS,NH,43.50530919,-70.97187303
03853,MIRROR LAKE,NH,43.643754124,-71.27663659
03855,NEW DURHAM,NH,43.453904829,-71.14483861
03856,NEWFIELDS,NH,43.037144067,-70.96036795
03857,NEWMARKET,NH,43.074314524,-70.9451438
03858,NEWTON,NH,42.867239348,-71.04576719
03860,NORTH CONWAY,NH,44.034776107,-71.13072927
03861,LEE,NH,43.122999919,-71.00703253
03862,NORTH HAMPTON,NH,42.979607665,-70.82700627
03864,OSSIPEE,NH,43.690096072,-71.10479309
03865,PLAISTOW,NH,42.83645613,-71.09272124
03867,ROCHESTER,NH,43.301082507,-70.97447911
03868,ROCHESTER,NH,43.329885919,-70.95007585
03869,ROLLINSFORD,NH,43.223234016,-70.83865242
03870,RYE,NH,43.014149279,-70.75939026
03872,SANBORNVILLE,NH,43.577628407,-71.03277245
03873,SANDOWN,NH,42.932744616,-71.18600108
03874,SEABROOK,NH,42.886713875,-70.86331553
03875,SILVER LAKE,NH,43.870765875,-71.18348033
03878,SOMERSWORTH,NH,43.251860395,-70.87569289
03882,EFFINGHAM,NH,43.746064985,-71.04948391
03883,SOUTH TAMWORTH,NH,43.828775646,-71.33133714
03884,STRAFFORD,NH,43.264045592,-71.14390312
03885,STRATHAM,NH,43.017105792,-70.89630796
03886,TAMWORTH,NH,43.855225747,-71.25817506
03887,UNION,NH,43.470138053,-71.06579396
03890,WEST OSSIPEE,NH,43.823865774,-71.23753066
03894,WOLFEBORO,NH,43.596999578,-71.19787086
03897,WONALANCET,NH,43.911800065,-71.33338204
03901,BERWICK,ME,43.287557113,-70.85126349
03902,CAPE NEDDICK,ME,43.214677035,-70.62508864
03903,ELIOT,ME,43.135957664,-70.7877112
03904,KITTERY,ME,43.101294771,-70.73609643
03905,KITTERY POINT,ME,43.092599361,-70.69187683
03906,NORTH BERWICK,ME,43.328353104,-70.76107971
03907,OGUNQUIT,ME,43.255524724,-70.6052547
03908,SOUTH BERWICK,ME,43.231028783,-70.78106233
03909,YORK,ME,43.156524613,-70.65841444
04001,ACTON,ME,43.530119995,-70.916096
04002,ALFRED,ME,43.485352225,-70.66329648
04003,BAILEY ISLAND,ME,43.733779317,-69.9949893
04005,BIDDEFORD,ME,43.486453952,-70.4625359
04008,BOWDOINHAM,ME,44.036726354,-69.87897041
04009,BRIDGTON,ME,44.053701644,-70.72594553
04010,BROWNFIELD,ME,43.934475272,-70.90578915
04011,BRUNSWICK,ME,43.904631824,-69.96161076
04015,CASCO,ME,43.96135727,-70.52267131
04017,CHEBEAGUE ISLAND,ME,43.736036315,-70.11484543
04019,CLIFF ISLAND,ME,43.6974465,-70.1049505
04020,CORNISH,ME,43.778530379,-70.80639093
04021,CUMBERLAND CENTER,ME,43.80004637,-70.26649857
04022,DENMARK,ME,43.985289319,-70.80419784
04024,EAST BALDWIN,ME,43.833925267,-70.68098194
04027,LEBANON,ME,43.394231901,-70.9120772
04029,SEBAGO,ME,43.888897748,-70.66542339
04030,EAST WATERBORO,ME,43.59664944,-70.69255815
04032,FREEPORT,ME,43.858027717,-70.10250595
04037,FRYEBURG,ME,44.051215293,-70.95948631
04038,GORHAM,ME,43.695651153,-70.45221373
04039,GRAY,ME,43.886555897,-70.34401562
04040,HARRISON,ME,44.10000771,-70.67198745
04041,HIRAM,ME,43.853775192,-70.83704787
04042,HOLLIS CENTER,ME,43.625307367,-70.62426239
04043,KENNEBUNK,ME,43.386935378,-70.54549705
04046,KENNEBUNKPORT,ME,43.411965402,-70.48331283
04047,PARSONSFIELD,ME,43.747594759,-70.89633352
04048,LIMERICK,ME,43.68541729,-70.77896688
04049,LIMINGTON,ME,43.732320382,-70.69628324
04050,LONG ISLAND,ME,43.692354294,-70.15442479
04051,LOVELL,ME,44.178795948,-70.89196668
04055,NAPLES,ME,43.965901953,-70.60312271
04061,NORTH WATERBORO,ME,43.645790321,-70.72895425
04062,WINDHAM,ME,43.803584526,-70.41121108
04064,OLD ORCHARD BEACH,ME,43.518339917,-70.3890231
04066,ORRS ISLAND,ME,43.766176433,-69.97035021
04068,PORTER,ME,43.82500261,-70.91740941
04069,POWNAL,ME,43.896458246,-70.18286666
04071,RAYMOND,ME,43.92329949,-70.45301078
04072,SACO,ME,43.51460182,-70.44268988
04073,SANFORD,ME,43.42686547,-70.75813994
04074,SCARBOROUGH,ME,43.584456134,-70.34952124
04076,SHAPLEIGH,ME,43.550087575,-70.83877924
04079,HARPSWELL,ME,43.803242155,-69.94671663
04083,SPRINGVALE,ME,43.466194173,-70.79878406
04084,STANDISH,ME,43.763591945,-70.55683518
04085,STEEP FALLS,ME,43.766387532,-70.63530676
04086,TOPSHAM,ME,43.942411043,-69.963137
04087,WATERBORO,ME,43.553423302,-70.73872257
04088,WATERFORD,ME,44.193854738,-70.71880816
04090,WELLS,ME,43.323120193,-70.61739989
04091,WEST BALDWIN,ME,43.828158387,-70.75110173
04092,WESTBROOK,ME,43.684518283,-70.35765599
04093,BUXTON,ME,43.645993441,-70.53847203
04095,WEST NEWFIELD,ME,43.638120995,-70.9093102
04096,YARMOUTH,ME,43.798410071,-70.17965875
04097,NORTH YARMOUTH,ME,43.845107072,-70.23722862
04101,PORTLAND,ME,43.659600995,-70.25914082
04102,PORTLAND,ME,43.659278674,-70.28768014
04103,PORTLAND,ME,43.688817677,-70.28689475
04105,FALMOUTH,ME,43.735409904,-70.2645006
04106,SOUTH PORTLAND,ME,43.63145431,-70.27344555
04107,CAPE ELIZABETH,ME,43.602861699,-70.23113256
04108,PEAKS ISLAND,ME,43.660295947,-70.19214541
04110,CUMBERLAND FORESIDE,ME,43.759234995,-70.20018188
04210,AUBURN,ME,44.093099254,-70.23989206
04216,ANDOVER,ME,44.620145669,-70.74875277
04217,BETHEL,ME,44.395186642,-70.79369129
04219,BRYANT POND,ME,44.389606952,-70.60886314
04220,BUCKFIELD,ME,44.321242911,-70.35435109
04221,CANTON,ME,44.447889732,-70.30868101
04222,DURHAM,ME,43.962715921,-70.11582889
04224,DIXFIELD,ME,44.562387292,-70.42823813
04226,EAST ANDOVER,ME,44.618510667,-70.72017203
04231,STONEHAM,ME,44.25693345,-70.84536356
04236,GREENE,ME,44.189298636,-70.14705302
04237,HANOVER,ME,44.488301056,-70.72863554
04238,HEBRON,ME,44.2028318,-70.37389462
04239,JAY,ME,44.521078523,-70.20813664
04240,LEWISTON,ME,44.098465837,-70.19052624
04250,LISBON,ME,44.027721061,-70.11203328
04252,LISBON FALLS,ME,44.008720446,-70.05987562
04253,LIVERMORE,ME,44.411251478,-70.21531194
04254,LIVERMORE FALLS,ME,44.455063275,-70.16745326
04255,GREENWOOD,ME,44.348148372,-70.66368764
04256,MECHANIC FALLS,ME,44.10559159,-70.39633106
04257,MEXICO,ME,44.560557718,-70.53690685
04258,MINOT,ME,44.143650256,-70.33889671
04259,MONMOUTH,ME,44.224250811,-70.01329395
04260,NEW GLOUCESTER,ME,43.96219389,-70.30149317
04261,NEWRY,ME,44.583876283,-70.89558282
04263,LEEDS,ME,44.278391656,-70.1268426
04265,NORTH MONMOUTH,ME,44.271594481,-70.03179707
04268,NORWAY,ME,44.216789573,-70.5671413
04270,OXFORD,ME,44.125647913,-70.50670043
04274,POLAND,ME,44.049020556,-70.3792221
04275,ROXBURY,ME,44.67619845,-70.60609118
04276,RUMFORD,ME,44.542067293,-70.56461423
04280,SABATTUS,ME,44.110255792,-70.07342243
04281,SOUTH PARIS,ME,44.236127183,-70.50693995
04282,TURNER,ME,44.266548785,-70.24820002
04284,WAYNE,ME,44.353260934,-70.05761967
04285,WELD,ME,44.702546426,-70.42788727
04287,BOWDOIN,ME,44.058871064,-69.96734357
04289,WEST PARIS,ME,44.324213223,-70.53964356
04290,PERU,ME,44.491676781,-70.4351185
04292,SUMNER,ME,44.375352459,-70.43342918
04294,WILTON,ME,44.604869036,-70.22752302
04330,AUGUSTA,ME,44.337547706,-69.75965421
04342,DRESDEN,ME,44.080200439,-69.7442666
04344,FARMINGDALE,ME,44.252914021,-69.79219979
04345,GARDINER,ME,44.212587307,-69.79347828
04346,RANDOLPH,ME,44.233877577,-69.75680618
04347,HALLOWELL,ME,44.289320254,-69.80049974
04348,JEFFERSON,ME,44.21104412,-69.49899754
04349,KENTS HILL,ME,44.439591586,-70.06479055
04350,LITCHFIELD,ME,44.166426724,-69.9475229
04351,MANCHESTER,ME,44.32705966,-69.86561608
04352,MOUNT VERNON,ME,44.460769147,-69.95705541
04353,WHITEFIELD,ME,44.21456596,-69.61060908
04354,PALERMO,ME,44.395359711,-69.42524354
04355,READFIELD,ME,44.383684203,-69.95201309
04357,RICHMOND,ME,44.109915046,-69.82304918
04358,SOUTH CHINA,ME,44.413631594,-69.54068254
04360,VIENNA,ME,44.543432079,-70.01385382
04363,WINDSOR,ME,44.310467229,-69.58080199
04364,WINTHROP,ME,44.310846737,-69.96159892
04401,BANGOR,ME,44.82473573,-68.80201247
04406,ABBOT,ME,45.215355681,-69.49201599
04408,AURORA,ME,44.880582882,-68.3004481
04410,BRADFORD,ME,45.084160745,-68.91851955
04411,BRADLEY,ME,44.899296127,-68.63233411
04412,BREWER,ME,44.78876108,-68.7531433
04413,BROOKTON,ME,45.553215571,-67.74877808
04414,BROWNVILLE,ME,45.350240285,-69.0367325
04416,BUCKSPORT,ME,44.605753047,-68.77278344
04417,BURLINGTON,ME,45.226086229,-68.42043465
04418,GREENBUSH,ME,45.065964921,-68.57318985
04419,CARMEL,ME,44.802169841,-69.0296578
04421,CASTINE,ME,44.421713576,-68.79468046
04422,CHARLESTON,ME,45.061609882,-69.03422348
04424,DANFORTH,ME,45.671138217,-67.8731589
04426,DOVER FOXCROFT,ME,45.18442974,-69.21087318
04427,CORINTH,ME,44.982600112,-69.00886706
04428,EDDINGTON,ME,44.813620649,-68.60764326
04429,HOLDEN,ME,44.737862982,-68.64949864
04430,EAST MILLINOCKET,ME,45.62830458,-68.57209174
04434,ETNA,ME,44.790697032,-69.13291885
04435,EXETER,ME,44.959875163,-69.13684712
04438,FRANKFORT,ME,44.599898992,-68.92377382
04441,GREENVILLE,ME,45.529427939,-69.53899322
04443,GUILFORD,ME,45.178459233,-69.39280744
04444,HAMPDEN,ME,44.739075489,-68.88604395
04448,HOWLAND,ME,45.258172586,-68.67564651
04449,HUDSON,ME,44.990140671,-68.89154408
04450,KENDUSKEAG,ME,44.913947531,-68.93591417
04451,KINGMAN,ME,45.580674623,-68.22531169
04453,LAGRANGE,ME,45.178567073,-68.81576529
04455,LEE,ME,45.364697172,-68.29363507
04456,LEVANT,ME,44.881740508,-68.98866517
04457,LINCOLN,ME,45.372430697,-68.49153457
04459,MATTAWAMKEAG,ME,45.537716571,-68.35662273
04460,MEDWAY,ME,45.610628716,-68.52626554
04461,MILFORD,ME,44.948366361,-68.62836596
04462,MILLINOCKET,ME,45.660551187,-68.70320271
04463,MILO,ME,45.250122972,-68.96550969
04464,MONSON,ME,45.281430707,-69.49249385
04468,OLD TOWN,ME,44.946017826,-68.67533639
04471,ORIENT,ME,45.909081422,-67.84216497
04472,ORLAND,ME,44.564990884,-68.70299539
04473,ORONO,ME,44.887955551,-68.67751768
04474,ORRINGTON,ME,44.726727245,-68.78608382
04475,PASSADUMKEAG,ME,45.178291976,-68.60612321
04476,PENOBSCOT,ME,44.473579626,-68.71181554
04478,ROCKWOOD,ME,46.0008,-70.0168
04479,SANGERVILLE,ME,45.134513508,-69.32282947
04481,SEBEC,ME,45.245617382,-69.10970683
04485,SHIRLEY MILLS,ME,45.359087935,-69.55232482
04487,SPRINGFIELD,ME,45.420870726,-68.09977728
04488,STETSON,ME,44.882556096,-69.11318988
04490,TOPSFIELD,ME,45.407659788,-67.74857345
04492,WAITE,ME,45.334649167,-67.6903533
04493,WEST ENFIELD,ME,45.258948562,-68.56218059
04495,WINN,ME,45.449441465,-68.35559239
04496,WINTERPORT,ME,44.657800483,-68.88949911
04497,WYTOPITLOCK,ME,45.723789179,-68.03630735
04530,BATH,ME,43.908446251,-69.82774203
04535,ALNA,ME,44.084302098,-69.62770359
04537,BOOTHBAY,ME,43.898264306,-69.62065965
04538,BOOTHBAY HARBOR,ME,43.853697577,-69.62655675
04539,BRISTOL,ME,43.962520845,-69.50483135
04541,CHAMBERLAIN,ME,43.885298783,-69.48084291
04543,DAMARISCOTTA,ME,44.034514213,-69.50403607
04544,EAST BOOTHBAY,ME,43.839218864,-69.59197915
04547,FRIENDSHIP,ME,43.995827263,-69.33063222
04548,GEORGETOWN,ME,43.820554261,-69.74434652
04551,BREMEN,ME,44.00784712,-69.43525619
04553,NEWCASTLE,ME,44.047406431,-69.55997628
04554,NEW HARBOR,ME,43.866285677,-69.50716083
04555,NOBLEBORO,ME,44.097923697,-69.47997831
04556,EDGECOMB,ME,43.969870793,-69.63095401
04558,PEMAQUID,ME,43.897110708,-69.51564628
04562,PHIPPSBURG,ME,43.807551372,-69.82754874
04563,CUSHING,ME,44.019130721,-69.24895571
04564,ROUND POND,ME,43.938257527,-69.46380763
04568,SOUTH BRISTOL,ME,43.870310973,-69.55952674
04571,TREVETT,ME,43.89551308,-69.67500875
04572,WALDOBORO,ME,44.105641979,-69.37202297
04573,WALPOLE,ME,43.953000708,-69.55111412
04574,WASHINGTON,ME,44.267437858,-69.38920721
04576,SOUTHPORT,ME,43.817522461,-69.66151678
04578,WISCASSET,ME,43.994550797,-69.68696946
04579,WOOLWICH,ME,43.962952393,-69.76702234
04605,ELLSWORTH,ME,44.561235452,-68.4216972
04606,ADDISON,ME,44.570953705,-67.7135358
04607,GOULDSBORO,ME,44.464684553,-68.05897336
04609,BAR HARBOR,ME,44.394358457,-68.25426749
04612,BERNARD,ME,44.258609062,-68.38207624
04613,BIRCH HARBOR,ME,44.380344636,-68.03637987
04614,BLUE HILL,ME,44.419062989,-68.58684787
04616,BROOKLIN,ME,44.284826051,-68.57168643
04617,BROOKSVILLE,ME,44.37421427,-68.7273503
04619,CALAIS,ME,45.175556586,-67.2666877
04622,CHERRYFIELD,ME,44.63696308,-67.93826687
04623,COLUMBIA FALLS,ME,44.666855777,-67.7597559
04624,COREA,ME,44.398836178,-67.97118278
04626,CUTLER,ME,44.676822139,-67.25332239
04627,DEER ISLE,ME,44.220995819,-68.66111316
04628,DENNYSVILLE,ME,44.901347423,-67.23198739
04630,EAST MACHIAS,ME,44.752370743,-67.39927442
04631,EASTPORT,ME,44.909741336,-66.99655872
04634,FRANKLIN,ME,44.613997966,-68.24335542
04640,HANCOCK,ME,44.523777738,-68.29431441
04642,HARBORSIDE,ME,44.3311968,-68.79414613
04643,HARRINGTON,ME,44.603536099,-67.81232307
04648,JONESBORO,ME,44.65661095,-67.57373194
04649,JONESPORT,ME,44.557554566,-67.59583598
04650,LITTLE DEER ISLE,ME,44.285445615,-68.70793401
04652,LUBEC,ME,44.835047108,-67.03317397
04653,BASS HARBOR,ME,44.218292117,-68.36710433
04654,MACHIAS,ME,44.713222006,-67.47573441
04655,MACHIASPORT,ME,44.668480263,-67.39011514
04657,MEDDYBEMPS,ME,44.987549736,-67.39121793
04658,MILBRIDGE,ME,44.541306751,-67.87417432
04660,MOUNT DESERT,ME,44.343451629,-68.32383626
04664,SULLIVAN,ME,44.525343176,-68.17154658
04666,PEMBROKE,ME,44.968227938,-67.20189669
04667,PERRY,ME,44.983194972,-67.08644548
04668,PRINCETON,ME,45.203751968,-67.62583491
04669,PROSPECT HARBOR,ME,44.405384393,-68.02009511
04671,ROBBINSTON,ME,45.063536544,-67.13934176
04673,SARGENTVILLE,ME,44.303686097,-68.67086338
04674,SEAL COVE,ME,44.299322706,-68.40314247
04676,SEDGWICK,ME,44.346300066,-68.63875822
04677,SORRENTO,ME,44.495993539,-68.17936185
04679,SOUTHWEST HARBOR,ME,44.273802319,-68.32260165
04680,STEUBEN,ME,44.498338283,-67.93913037
04681,STONINGTON,ME,44.170197756,-68.66585972
04683,SUNSET,ME,44.2227,-68.7765
04684,SURRY,ME,44.488504267,-68.51005403
04685,SWANS ISLAND,ME,44.159139158,-68.42271204
04686,WESLEY,ME,44.93354492,-67.68310625
04691,WHITING,ME,44.762529824,-67.27135189
04693,WINTER HARBOR,ME,44.399686248,-68.08587464
04694,BAILEYVILLE,ME,45.116251893,-67.43210299
04730,HOULTON,ME,46.122048137,-67.85852465
04732,ASHLAND,ME,46.606845486,-68.3888345
04733,BENEDICTA,ME,45.807696644,-68.39200073
04734,BLAINE,ME,46.487814753,-67.84206255
04735,BRIDGEWATER,ME,46.420906166,-67.83929123
04736,CARIBOU,ME,46.870953231,-68.01801587
04739,EAGLE LAKE,ME,47.036966778,-68.59349861
04740,EASTON,ME,46.644409521,-67.87578812
04742,FORT FAIRFIELD,ME,46.770159018,-67.83662711
04743,FORT KENT,ME,47.240994159,-68.59052991
04745,FRENCHVILLE,ME,47.304604437,-68.38198825
04746,GRAND ISLE,ME,47.287727104,-68.13092022
04747,ISLAND FALLS,ME,46.023992441,-68.26114265
04750,LIMESTONE,ME,46.923373292,-67.83864068
04756,MADAWASKA,ME,47.349821407,-68.32546859
04757,MAPLETON,ME,46.687773719,-68.12479122
04758,MARS HILL,ME,46.530767711,-67.86496339
04760,MONTICELLO,ME,46.319261426,-67.85893342
04761,NEW LIMERICK,ME,46.1117083,-67.95561716
04762,NEW SWEDEN,ME,46.962419343,-68.11785092
04763,OAKFIELD,ME,46.099368418,-68.13982612
04764,OXBOW,ME,46.41970369,-68.48349328
04765,PATTEN,ME,46.016537885,-68.47294572
04766,PERHAM,ME,46.877672605,-68.21913201
04768,PORTAGE,ME,46.797961548,-68.47865717
04769,PRESQUE ISLE,ME,46.683951533,-68.00681741
04772,SAINT AGATHA,ME,47.240345109,-68.32653045
04773,SAINT DAVID,ME,47.265008625,-68.23811321
04774,SAINT FRANCIS,ME,47.138230183,-68.96525764
04776,SHERMAN,ME,45.878678771,-68.36024176
04777,STACYVILLE,ME,45.885059303,-68.46077581
04779,SINCLAIR,ME,47.131032934,-68.32687956
04780,SMYRNA MILLS,ME,46.141603857,-68.17632072
04781,WALLAGRASS,ME,47.154485893,-68.58960589
04783,STOCKHOLM,ME,47.028463743,-68.17755827
04785,VAN BUREN,ME,47.160094229,-67.94186417
04786,WASHBURN,ME,46.789483452,-68.14529222
04787,WESTFIELD,ME,46.562489608,-67.94376772
04841,ROCKLAND,ME,44.109392945,-69.1150414
04843,CAMDEN,ME,44.214288259,-69.07695389
04847,HOPE,ME,44.24429656,-69.18674737
04848,ISLESBORO,ME,44.321525873,-68.90198914
04849,LINCOLNVILLE,ME,44.325792728,-69.03441237
04853,NORTH HAVEN,ME,44.14887796,-68.86848985
04854,OWLS HEAD,ME,44.070910094,-69.09131691
04856,ROCKPORT,ME,44.169389024,-69.10514106
04858,SOUTH THOMASTON,ME,44.044617064,-69.13996408
04859,SPRUCE HEAD,ME,44.005035226,-69.16412727
04860,TENANTS HARBOR,ME,43.98124142,-69.21721324
04861,THOMASTON,ME,44.082411286,-69.18059716
04862,UNION,ME,44.250607845,-69.27204768
04863,VINALHAVEN,ME,44.063651921,-68.83522342
04864,WARREN,ME,44.127493282,-69.24455106
04901,WATERVILLE,ME,44.549229224,-69.62173569
04910,ALBION,ME,44.521672993,-69.44358734
04911,ANSON,ME,44.780772496,-69.94155309
04912,ATHENS,ME,44.949053209,-69.67224966
04915,BELFAST,ME,44.444331019,-69.02076532
04917,BELGRADE,ME,44.488793662,-69.83475609
04918,BELGRADE LAKES,ME,44.520595569,-69.86723898
04920,BINGHAM,ME,45.056960316,-69.88939325
04921,BROOKS,ME,44.567276362,-69.12930458
04922,BURNHAM,ME,44.679023054,-69.3748667
04923,CAMBRIDGE,ME,45.038084945,-69.45158443
04924,CANAAN,ME,44.759190957,-69.55093272
04925,CARATUNK,ME,45.253280514,-69.94069811
04927,CLINTON,ME,44.661965366,-69.53477475
04928,CORINNA,ME,44.942775591,-69.25725196
04929,DETROIT,ME,44.777792225,-69.3172612
04930,DEXTER,ME,45.023461206,-69.29905206
04932,DIXMONT,ME,44.698000528,-69.13365435
04936,EUSTIS,ME,45.26464508,-70.57067236
04937,FAIRFIELD,ME,44.607732832,-69.63721407
04938,FARMINGTON,ME,44.662814829,-70.12732671
04939,GARLAND,ME,45.04265807,-69.15698925
04941,FREEDOM,ME,44.463175697,-69.30424939
04942,HARMONY,ME,45.001385673,-69.56592798
04943,HARTLAND,ME,44.878066812,-69.48061867
04945,JACKMAN,ME,45.626739923,-70.22954685
04947,KINGFIELD,ME,45.021453515,-70.22211763
04949,LIBERTY,ME,44.376301007,-69.33313177
04950,MADISON,ME,44.812181557,-69.83756343
04951,MONROE,ME,44.604161613,-69.03313135
04952,MORRILL,ME,44.407172861,-69.13500334
04953,NEWPORT,ME,44.84500313,-69.25540942
04955,NEW SHARON,ME,44.642533337,-70.01243185
04956,NEW VINEYARD,ME,44.790865021,-70.12770552
04957,NORRIDGEWOCK,ME,44.709586883,-69.82604236
04958,NORTH ANSON,ME,44.890551058,-69.91178616
04961,NEW PORTLAND,ME,44.938812965,-70.06305739
04963,OAKLAND,ME,44.552938815,-69.74924608
04965,PALMYRA,ME,44.846364337,-69.3639236
04966,PHILLIPS,ME,44.836017545,-70.3609289
04967,PITTSFIELD,ME,44.782277913,-69.40225545
04969,PLYMOUTH,ME,44.769956555,-69.22274762
04970,RANGELEY,ME,44.967551532,-70.6646251
04971,SAINT ALBANS,ME,44.92767989,-69.39386808
04973,SEARSMONT,ME,44.366114346,-69.19208307
04974,SEARSPORT,ME,44.480480444,-68.93441635
04976,SKOWHEGAN,ME,44.776490879,-69.7006953
04978,SMITHFIELD,ME,44.636267494,-69.81284359
04979,SOLON,ME,44.939576219,-69.81236637
04981,STOCKTON SPRINGS,ME,44.513727732,-68.85459845
04982,STRATTON,ME,45.146584412,-70.43313312
04983,STRONG,ME,44.835732756,-70.22870593
04984,TEMPLE,ME,44.689751083,-70.23789822
04985,WEST FORKS,ME,45.348487868,-69.93910366
04986,THORNDIKE,ME,44.556467548,-69.23124271
04987,TROY,ME,44.678110921,-69.25413316
04988,UNITY,ME,44.598707478,-69.33335498
04989,VASSALBORO,ME,44.436411664,-69.64574712
05001,WHITE RIVER JUNCTION,VT,43.660497546,-72.3395707
05032,BETHEL,VT,43.821299694,-72.63924676
05033,BRADFORD,VT,44.001552977,-72.14722855
05034,BRIDGEWATER,VT,43.590885125,-72.63154275
05035,BRIDGEWATER CORNERS,VT,43.596313907,-72.67745574
05036,BROOKFIELD,VT,44.02936423,-72.58722955
05037,BROWNSVILLE,VT,43.465806285,-72.49071832
05038,CHELSEA,VT,43.99386409,-72.46119279
05039,CORINTH,VT,44.029922212,-72.28609342
05040,EAST CORINTH,VT,44.064477574,-72.21458616
05041,EAST RANDOLPH,VT,43.973659795,-72.55943304
05042,EAST RYEGATE,VT,44.235996424,-72.09594927
05043,EAST THETFORD,VT,43.805994089,-72.2122175
05045,FAIRLEE,VT,43.906467296,-72.18540058
05046,GROTON,VT,44.23534394,-72.21128404
05048,HARTLAND,VT,43.576370207,-72.41714375
05051,NEWBURY,VT,44.084209275,-72.10269503
05052,NORTH HARTLAND,VT,43.596976432,-72.35519157
05053,NORTH POMFRET,VT,43.717560493,-72.49954364
05055,NORWICH,VT,43.740129473,-72.3044889
05056,PLYMOUTH,VT,43.527821727,-72.72095203
05058,POST MILLS,VT,43.875100729,-72.26469344
05060,RANDOLPH,VT,43.941518168,-72.67084776
05061,RANDOLPH CENTER,VT,43.940242502,-72.58696522
05062,READING,VT,43.487640801,-72.54518916
05065,SHARON,VT,43.786931869,-72.43144151
05067,SOUTH POMFRET,VT,43.688569891,-72.56790202
05068,SOUTH ROYALTON,VT,43.808425864,-72.52782794
05069,SOUTH RYEGATE,VT,44.178865096,-72.14341495
05070,SOUTH STRAFFORD,VT,43.845057667,-72.36084625
05071,SOUTH WOODSTOCK,VT,43.569134319,-72.54767133
05072,STRAFFORD,VT,43.877352541,-72.38295685
05073,TAFTSVILLE,VT,43.612992,-72.47484783
05075,THETFORD CENTER,VT,43.832950311,-72.27164559
05076,TOPSHAM,VT,44.124343178,-72.23508303
05077,TUNBRIDGE,VT,43.900633514,-72.48005468
05079,VERSHIRE,VT,43.953369675,-72.32338656
05081,WELLS RIVER,VT,44.148935307,-72.08324205
05083,WEST FAIRLEE,VT,43.921600398,-72.26285412
05084,WEST HARTFORD,VT,43.720632385,-72.44640323
05086,WEST TOPSHAM,VT,44.106127384,-72.30673675
05089,WINDSOR,VT,43.477705179,-72.41013222
05091,WOODSTOCK,VT,43.62354658,-72.53445658
05101,BELLOWS FALLS,VT,43.141987452,-72.45728625
05142,CAVENDISH,VT,43.405206012,-72.58585384
05143,CHESTER,VT,43.264126542,-72.60424693
05146,GRAFTON,VT,43.187583342,-72.60159886
05148,LONDONDERRY,VT,43.236201113,-72.80905706
05149,LUDLOW,VT,43.404308352,-72.69825817
05150,NORTH SPRINGFIELD,VT,43.332370259,-72.5271493
05151,PERKINSVILLE,VT,43.383059821,-72.5004355
05152,PERU,VT,43.220405718,-72.91846408
05153,PROCTORSVILLE,VT,43.419942317,-72.63175368
05154,SAXTONS RIVER,VT,43.157080525,-72.52610718
05155,SOUTH LONDONDERRY,VT,43.181326793,-72.82066332
05156,SPRINGFIELD,VT,43.302470989,-72.47866135
05158,WESTMINSTER,VT,43.104403854,-72.45921587
05161,WESTON,VT,43.296591776,-72.78993876
05201,BENNINGTON,VT,42.881862917,-73.1926625
05250,ARLINGTON,VT,43.089608042,-73.16311262
05251,DORSET,VT,43.245803187,-73.08514553
05252,EAST ARLINGTON,VT,43.059447386,-73.12393217
05253,EAST DORSET,VT,43.247741281,-73.00846239
05255,MANCHESTER CENTER,VT,43.178633972,-73.04406843
05257,NORTH BENNINGTON,VT,42.938444348,-73.24488221
05260,NORTH POWNAL,VT,42.816539426,-73.25933057
05261,POWNAL,VT,42.785618861,-73.21527821
05262,SHAFTSBURY,VT,42.970147825,-73.20144917
05301,BRATTLEBORO,VT,42.848490224,-72.58999154
05340,BONDVILLE,VT,43.170706607,-72.90791001
05341,EAST DOVER,VT,42.949555931,-72.7912059
05342,JACKSONVILLE,VT,42.761517185,-72.79126943
05343,JAMAICA,VT,43.097297263,-72.7874892
05345,NEWFANE,VT,42.99149615,-72.64751986
05346,PUTNEY,VT,43.008438439,-72.52210659
05350,READSBORO,VT,42.78919577,-72.97661627
05351,SOUTH NEWFANE,VT,42.927625302,-72.72515854
05352,STAMFORD,VT,42.766315619,-73.06343932
05353,TOWNSHEND,VT,43.05127943,-72.66746983
05354,VERNON,VT,42.756652456,-72.51207937
05355,WARDSBORO,VT,43.028633505,-72.79730232
05356,WEST DOVER,VT,42.947941873,-72.85744697
05358,WEST HALIFAX,VT,42.773458659,-72.74131287
05359,WEST TOWNSHEND,VT,43.147636659,-72.71895044
05360,WEST WARDSBORO,VT,43.037938368,-72.88598638
05361,WHITINGHAM,VT,42.781854219,-72.86131072
05362,WILLIAMSVILLE,VT,42.944793612,-72.68094263
05363,WILMINGTON,VT,42.881771387,-72.85512047
05401,BURLINGTON,VT,44.476539132,-73.2098924
05403,SOUTH BURLINGTON,VT,44.449068167,-73.18125686
05404,WINOOSKI,VT,44.494295208,-73.1862135
05408,BURLINGTON,VT,44.512771391,-73.25421433
05440,ALBURGH,VT,44.943144208,-73.29187525
05441,BAKERSFIELD,VT,44.778521637,-72.787678
05442,BELVIDERE CENTER,VT,44.752384386,-72.68708938
05443,BRISTOL,VT,44.139694743,-73.06269427
05444,CAMBRIDGE,VT,44.647993303,-72.90994659
05445,CHARLOTTE,VT,44.307879619,-73.22743832
05446,COLCHESTER,VT,44.54113137,-73.20076209
05447,EAST BERKSHIRE,VT,44.933377798,-72.70387137
05448,EAST FAIRFIELD,VT,44.751886403,-72.88411745
05450,ENOSBURG FALLS,VT,44.898498625,-72.79467856
05452,ESSEX JUNCTION,VT,44.49997212,-73.09435211
05454,FAIRFAX,VT,44.692511625,-73.02121193
05455,FAIRFIELD,VT,44.805469466,-72.97414369
05456,FERRISBURGH,VT,44.209639511,-73.24895467
05457,FRANKLIN,VT,44.971434838,-72.91480816
05458,GRAND ISLE,VT,44.715483541,-73.30525302
05459,HIGHGATE CENTER,VT,44.942874564,-73.02782745
05461,HINESBURG,VT,44.331670463,-73.09490691
05462,HUNTINGTON,VT,44.306533668,-72.9786688
05463,ISLE LA MOTTE,VT,44.878040924,-73.34165564
05464,JEFFERSONVILLE,VT,44.647219949,-72.83056245
05465,JERICHO,VT,44.487308084,-72.96900613
05468,MILTON,VT,44.645729605,-73.13245841
05471,MONTGOMERY CENTER,VT,44.862120043,-72.58843165
05472,NEW HAVEN,VT,44.113646189,-73.15653263
05473,NORTH FERRISBURGH,VT,44.249496689,-73.19697938
05474,NORTH HERO,VT,44.845197969,-73.27448748
05476,RICHFORD,VT,44.982500087,-72.66568509
05477,RICHMOND,VT,44.400809507,-72.98400432
05478,SAINT ALBANS,VT,44.807352216,-73.08995179
05482,SHELBURNE,VT,44.389654902,-73.2173252
05483,SHELDON,VT,44.896245048,-72.97780492
05486,SOUTH HERO,VT,44.639307877,-73.31032304
05487,STARKSBORO,VT,44.235335548,-73.02553299
05488,SWANTON,VT,44.915080901,-73.12573962
05489,UNDERHILL,VT,44.55131891,-72.9142324
05491,VERGENNES,VT,44.13999588,-73.28225785
05492,WATERVILLE,VT,44.708086149,-72.76107455
05494,WESTFORD,VT,44.612515526,-73.0111173
05495,WILLISTON,VT,44.44304667,-73.09830382
05602,MONTPELIER,VT,44.263366183,-72.57897181
05640,ADAMANT,VT,44.351772258,-72.49134335
05641,BARRE,VT,44.195957232,-72.4956752
05647,CABOT,VT,44.412057731,-72.29511867
05648,CALAIS,VT,44.369277179,-72.49953699
05649,EAST BARRE,VT,44.145885553,-72.38630382
05650,EAST CALAIS,VT,44.396688732,-72.43813483
05651,EAST MONTPELIER,VT,44.268860912,-72.49465979
05652,EDEN,VT,44.714657284,-72.5624303
05653,EDEN MILLS,VT,44.71656025,-72.5124817
05654,GRANITEVILLE,VT,44.146157685,-72.4859141
05655,HYDE PARK,VT,44.620387385,-72.59192535
05656,JOHNSON,VT,44.642666892,-72.67151767
05658,MARSHFIELD,VT,44.357528507,-72.35068139
05660,MORETOWN,VT,44.247743948,-72.78035184
05661,MORRISVILLE,VT,44.547792624,-72.60512925
05663,NORTHFIELD,VT,44.14476406,-72.66497292
05666,NORTH MONTPELIER,VT,44.364479706,-72.43697759
05667,PLAINFIELD,VT,44.281156663,-72.42174687
05669,ROXBURY,VT,44.071806887,-72.74533119
05672,STOWE,VT,44.474623329,-72.7010785
05673,WAITSFIELD,VT,44.187503154,-72.83148709
05674,WARREN,VT,44.113853086,-72.85020666
05675,WASHINGTON,VT,44.092082927,-72.42953932
05676,WATERBURY,VT,44.338955532,-72.76605881
05677,WATERBURY CENTER,VT,44.379077049,-72.70950744
05679,WILLIAMSTOWN,VT,44.114873316,-72.54074451
05680,WOLCOTT,VT,44.557074929,-72.47394386
05681,WOODBURY,VT,44.4506152,-72.41508155
05682,WORCESTER,VT,44.381145384,-72.56686338
05701,RUTLAND,VT,43.614871624,-72.96773452
05730,BELMONT,VT,43.417056881,-72.8211994
05732,BOMOSEEN,VT,43.648089351,-73.20016908
05733,BRANDON,VT,43.812383267,-73.0921712
05734,BRIDPORT,VT,43.985462443,-73.33974879
05735,CASTLETON,VT,43.626379104,-73.18290322
05736,CENTER RUTLAND,VT,43.601232765,-73.0113316
05737,CHITTENDEN,VT,43.710725207,-72.94949997
05738,CUTTINGSVILLE,VT,43.520059016,-72.8688241
05739,DANBY,VT,43.363093443,-73.02039571
05742,EAST WALLINGFORD,VT,43.447838576,-72.88762457
05743,FAIR HAVEN,VT,43.634340098,-73.2767166
05744,FLORENCE,VT,43.691155351,-73.05888875
05747,GRANVILLE,VT,43.979763511,-72.83422531
05748,HANCOCK,VT,43.925186971,-72.85741166
05751,KILLINGTON,VT,43.657708544,-72.80925838
05753,MIDDLEBURY,VT,44.006889667,-73.16432333
05757,MIDDLETOWN SPRINGS,VT,43.481069614,-73.11696887
05758,MOUNT HOLLY,VT,43.450293339,-72.79288195
05759,NORTH CLARENDON,VT,43.544139162,-72.95869469
05760,ORWELL,VT,43.7992555,-73.28594707
05761,PAWLET,VT,43.348047347,-73.14751596
05762,PITTSFIELD,VT,43.763439648,-72.82475539
05763,PITTSFORD,VT,43.710661493,-73.00380826
05764,POULTNEY,VT,43.518101108,-73.22109641
05765,PROCTOR,VT,43.658342479,-73.03503184
05767,ROCHESTER,VT,43.873620861,-72.81250472
05769,SALISBURY,VT,43.921732348,-73.11193874
05770,SHOREHAM,VT,43.894377653,-73.31826749
05772,STOCKBRIDGE,VT,43.768847268,-72.73143794
05773,WALLINGFORD,VT,43.453635517,-72.99081271
05774,WELLS,VT,43.425171896,-73.19554125
05775,WEST PAWLET,VT,43.347121018,-73.23921424
05776,WEST RUPERT,VT,43.231881333,-73.21898879
05777,WEST RUTLAND,VT,43.573761378,-73.04304935
05778,WHITING,VT,43.870171006,-73.209459
05819,SAINT JOHNSBURY,VT,44.421925179,-72.00721005
05820,ALBANY,VT,44.74769616,-72.35843122
05821,BARNET,VT,44.314931705,-72.10865852
05822,BARTON,VT,44.754404988,-72.16186765
05824,CONCORD,VT,44.437804359,-71.8903897
05826,CRAFTSBURY,VT,44.640732795,-72.3874883
05827,CRAFTSBURY COMMON,VT,44.672357199,-72.3623379
05828,DANVILLE,VT,44.429741493,-72.12212918
05829,DERBY,VT,44.953460933,-72.10478826
05830,DERBY LINE,VT,44.992188419,-72.05849084
05832,EAST BURKE,VT,44.584287838,-71.92887317
05833,EAST CHARLESTON,VT,44.841020467,-71.9991356
05836,EAST HARDWICK,VT,44.519733063,-72.27954404
05837,EAST HAVEN,VT,44.675032554,-71.8811932
05839,GLOVER,VT,44.680453184,-72.2038477
05840,GRANBY,VT,44.571818667,-71.74473356
05841,GREENSBORO,VT,44.595517614,-72.29890281
05842,GREENSBORO BEND,VT,44.566361741,-72.25192219
05843,HARDWICK,VT,44.503301697,-72.34917535
05845,IRASBURG,VT,44.795987406,-72.29790884
05846,ISLAND POND,VT,44.807519186,-71.89768007
05847,LOWELL,VT,44.797869826,-72.44812677
05848,LOWER WATERFORD,VT,44.3884,-71.9573
05849,LYNDON,VT,44.5417,-72.0481
05850,LYNDON CENTER,VT,44.553547149,-72.02169739
05851,LYNDONVILLE,VT,44.543084786,-72.01335237
05853,MORGAN,VT,44.903405948,-71.97471074
05855,NEWPORT,VT,44.938793178,-72.20101067
05857,NEWPORT CENTER,VT,44.948110315,-72.29634672
05858,NORTH CONCORD,VT,44.504157675,-71.82361637
05859,NORTH TROY,VT,44.962148346,-72.41266618
05860,ORLEANS,VT,44.813573532,-72.15446612
05861,PASSUMPSIC,VT,44.3444,-72.0508
05862,PEACHAM,VT,44.336794333,-72.1588045
05866,SHEFFIELD,VT,44.619514447,-72.12352311
05867,SUTTON,VT,44.646533168,-72.02917416
05868,TROY,VT,44.9209,-72.4763
05871,WEST BURKE,VT,44.658881959,-71.9625814
05872,WEST CHARLESTON,VT,44.872450819,-72.03940451
05873,WEST DANVILLE,VT,44.420629299,-72.21976627
05874,WESTFIELD,VT,44.882129654,-72.4282691
05875,BARTON,VT,44.715113228,-72.25567724
05902,BEECHER FALLS,VT,45.008389759,-71.4978511
05903,CANAAN,VT,44.970870432,-71.56567895
05904,GILMAN,VT,44.421438704,-71.70784581
05905,GUILDHALL,VT,44.691807174,-71.6160333
05906,LUNENBURG,VT,44.461319435,-71.70786101
05907,NORTON,VT,44.955360615,-71.78681685
06001,AVON,CT,41.79173315,-72.86456281
06002,BLOOMFIELD,CT,41.831670542,-72.72796494
06010,BRISTOL,CT,41.68107945,-72.93040254
06013,BURLINGTON,CT,41.756685977,-72.94803702
06016,BROAD BROOK,CT,41.912095588,-72.54312327
06018,CANAAN,CT,42.025597209,-73.32463234
06019,CANTON,CT,41.839233731,-72.90941752
06021,COLEBROOK,CT,41.991421091,-73.0942596
06023,EAST BERLIN,CT,41.614288238,-72.71975739
06024,EAST CANAAN,CT,42.0128813,-73.27982432
06026,EAST GRANBY,CT,41.933762863,-72.7432706
06027,EAST HARTLAND,CT,42.001197583,-72.90060631
06029,ELLINGTON,CT,41.899605044,-72.46245394
06031,FALLS VILLAGE,CT,41.95752077,-73.34299184
06032,FARMINGTON,CT,41.726026943,-72.83716351
06033,GLASTONBURY,CT,41.707568467,-72.57007121
06035,GRANBY,CT,41.957688986,-72.79864234
06037,BERLIN,CT,41.620235241,-72.76644155
06039,LAKEVILLE,CT,41.952719149,-73.4382043
06040,MANCHESTER,CT,41.768487903,-72.52864363
06042,MANCHESTER,CT,41.797093085,-72.52333033
06043,BOLTON,CT,41.768259767,-72.43896964
06051,NEW BRITAIN,CT,41.666424926,-72.7725622
06052,NEW BRITAIN,CT,41.658960535,-72.79983138
06053,NEW BRITAIN,CT,41.68738749,-72.78896912
06057,NEW HARTFORD,CT,41.850270956,-73.01140869
06058,NORFOLK,CT,41.976190669,-73.19572637
06060,NORTH GRANBY,CT,42.011085135,-72.84172201
06062,PLAINVILLE,CT,41.671723684,-72.86416509
06063,BARKHAMSTED,CT,41.921149429,-72.97629313
06065,RIVERTON,CT,41.982075942,-73.00921246
06066,VERNON ROCKVILLE,CT,41.847575481,-72.46656016
06067,ROCKY HILL,CT,41.656255576,-72.66605285
06068,SALISBURY,CT,42.004780982,-73.41317393
06069,SHARON,CT,41.863140023,-73.45845861
06070,SIMSBURY,CT,41.877679773,-72.81802091
06071,SOMERS,CT,41.99466094,-72.45392649
06073,SOUTH GLASTONBURY,CT,41.661173518,-72.57856052
06074,SOUTH WINDSOR,CT,41.830910133,-72.5568035
06076,STAFFORD SPRINGS,CT,41.973179608,-72.30175589
06078,SUFFIELD,CT,41.989358945,-72.63666618
06081,TARIFFVILLE,CT,41.906747765,-72.76765249
06082,ENFIELD,CT,41.989208583,-72.56740304
06084,TOLLAND,CT,41.874845228,-72.36813281
06085,UNIONVILLE,CT,41.747223485,-72.8883324
06088,EAST WINDSOR,CT,41.90874411,-72.60486444
06089,WEATOGUE,CT,41.835935518,-72.82423037
06090,WEST GRANBY,CT,41.94983233,-72.85588696
06091,WEST HARTLAND,CT,42.010383432,-72.98312698
06092,WEST SIMSBURY,CT,41.861203632,-72.8581447
06093,WEST SUFFIELD,CT,42.007543812,-72.73174413
06095,WINDSOR,CT,41.859241132,-72.66492962
06096,WINDSOR LOCKS,CT,41.926276889,-72.64444283
06098,WINSTED,CT,41.922788902,-73.07234005
06103,HARTFORD,CT,41.766797009,-72.67537531
06105,HARTFORD,CT,41.768905722,-72.70136375
06106,HARTFORD,CT,41.750946029,-72.69383715
06107,WEST HARTFORD,CT,41.755189299,-72.75377405
06108,EAST HARTFORD,CT,41.780427064,-72.61755976
06109,WETHERSFIELD,CT,41.701591771,-72.67603975
06110,WEST HARTFORD,CT,41.733002918,-72.73352616
06111,NEWINGTON,CT,41.686281941,-72.72847688
06112,HARTFORD,CT,41.789407872,-72.69378268
06114,HARTFORD,CT,41.740136738,-72.68028527
06117,WEST HARTFORD,CT,41.789823038,-72.74620928
06118,EAST HARTFORD,CT,41.748162706,-72.61185532
06119,WEST HARTFORD,CT,41.761962207,-72.72698153
06120,HARTFORD,CT,41.786147254,-72.67581491
06226,WILLIMANTIC,CT,41.715848132,-72.21091993
06231,AMSTON,CT,41.630471245,-72.36101616
06232,ANDOVER,CT,41.733708182,-72.37543255
06234,BROOKLYN,CT,41.787312831,-71.93416042
06235,CHAPLIN,CT,41.78288935,-72.12956456
06237,COLUMBIA,CT,41.698369116,-72.30712482
06238,COVENTRY,CT,41.785530328,-72.33782111
06239,DANIELSON,CT,41.801791401,-71.873355
06241,DAYVILLE,CT,41.853373835,-71.86720441
06242,EASTFORD,CT,41.895684606,-72.09921157
06243,EAST KILLINGLY,CT,41.842250854,-71.81369548
06247,HAMPTON,CT,41.762616187,-72.06764261
06248,HEBRON,CT,41.682265158,-72.39709689
06249,LEBANON,CT,41.632993018,-72.24669791
06250,MANSFIELD CENTER,CT,41.75714218,-72.20936812
06254,NORTH FRANKLIN,CT,41.613897737,-72.14116037
06255,NORTH GROSVENORDALE,CT,41.989710202,-71.89797481
06256,NORTH WINDHAM,CT,41.735197472,-72.1707065
06259,POMFRET CENTER,CT,41.869873961,-71.98042778
06260,PUTNAM,CT,41.917534539,-71.89849564
06262,QUINEBAUG,CT,42.023378813,-71.9387225
06264,SCOTLAND,CT,41.698042241,-72.09773469
06266,SOUTH WINDHAM,CT,41.673790745,-72.169861
06268,STORRS MANSFIELD,CT,41.802534506,-72.25497843
06277,THOMPSON,CT,41.974493229,-71.84296955
06278,ASHFORD,CT,41.886734687,-72.17080089
06279,WILLINGTON,CT,41.872805162,-72.26977363
06280,WINDHAM,CT,41.701069708,-72.15441424
06281,WOODSTOCK,CT,41.962876616,-71.9974759
06282,WOODSTOCK VALLEY,CT,41.948056948,-72.06905167
06320,NEW LONDON,CT,41.347840974,-72.10589235
06330,BALTIC,CT,41.630999385,-72.07659783
06331,CANTERBURY,CT,41.688541678,-72.0047025
06333,EAST LYME,CT,41.371630064,-72.22939702
06334,BOZRAH,CT,41.541299155,-72.16766819
06335,GALES FERRY,CT,41.429568446,-72.0675924
06336,GILMAN,CT,41.579855697,-72.19683979
06339,LEDYARD,CT,41.439824731,-71.99644401
06340,GROTON,CT,41.35407327,-72.0552569
06351,JEWETT CITY,CT,41.596583062,-71.9654334
06353,MONTVILLE,CT,41.45953647,-72.14367411
06354,MOOSUP,CT,41.717044786,-71.87246585
06355,MYSTIC,CT,41.364555596,-71.97431063
06357,NIANTIC,CT,41.322198729,-72.21180398
06359,NORTH STONINGTON,CT,41.458122599,-71.87197854
06360,NORWICH,CT,41.534171151,-72.08227386
06365,PRESTON,CT,41.516527742,-72.00655494
06370,OAKDALE,CT,41.470275358,-72.19049262
06371,OLD LYME,CT,41.33239337,-72.30829806
06374,PLAINFIELD,CT,41.68193002,-71.91766217
06375,QUAKER HILL,CT,41.401775932,-72.11593818
06377,STERLING,CT,41.724753025,-71.81816972
06378,STONINGTON,CT,41.361511647,-71.91733847
06379,PAWCATUCK,CT,41.372632531,-71.8478254
06380,TAFTVILLE,CT,41.567336286,-72.05143905
06382,UNCASVILLE,CT,41.461565809,-72.11374275
06384,VOLUNTOWN,CT,41.585600382,-71.83304877
06385,WATERFORD,CT,41.345638047,-72.14535262
06389,YANTIC,CT,41.556641952,-72.12063638
06401,ANSONIA,CT,41.343540747,-73.07426127
06403,BEACON FALLS,CT,41.438470685,-73.05434063
06405,BRANFORD,CT,41.278826552,-72.81291636
06409,CENTERBROOK,CT,41.34926077,-72.41625883
06410,CHESHIRE,CT,41.504029822,-72.90654722
06412,CHESTER,CT,41.404623252,-72.46756934
06413,CLINTON,CT,41.289969913,-72.52639693
06415,COLCHESTER,CT,41.562611716,-72.34042324
06416,CROMWELL,CT,41.610659299,-72.66772652
06417,DEEP RIVER,CT,41.376272758,-72.4476879
06418,DERBY,CT,41.32311029,-73.08010963
06419,KILLINGWORTH,CT,41.368771407,-72.57072395
06420,SALEM,CT,41.488438987,-72.25889286
06422,DURHAM,CT,41.463687809,-72.68732745
06423,EAST HADDAM,CT,41.470859092,-72.40372902
06424,EAST HAMPTON,CT,41.576663357,-72.50414795
06426,ESSEX,CT,41.351439388,-72.40009848
06437,GUILFORD,CT,41.313310849,-72.69638606
06438,HADDAM,CT,41.464062465,-72.50476631
06441,HIGGANUM,CT,41.464431995,-72.57629554
06442,IVORYTON,CT,41.343683884,-72.44449513
06443,MADISON,CT,41.308396716,-72.61331748
06447,MARLBOROUGH,CT,41.639316973,-72.45974666
06450,MERIDEN,CT,41.53217378,-72.78425163
06451,MERIDEN,CT,41.535080936,-72.81919657
06455,MIDDLEFIELD,CT,41.516177299,-72.71752712
06457,MIDDLETOWN,CT,41.559439837,-72.6708845
06460,MILFORD,CT,41.213607881,-73.04933723
06461,MILFORD,CT,41.233345897,-73.0730176
06468,MONROE,CT,41.333545966,-73.22505784
06469,MOODUS,CT,41.506401445,-72.44403865
06470,NEWTOWN,CT,41.395035502,-73.32100116
06471,NORTH BRANFORD,CT,41.327386013,-72.77430655
06472,NORTHFORD,CT,41.39403204,-72.78238143
06473,NORTH HAVEN,CT,41.38160571,-72.85842118
06475,OLD SAYBROOK,CT,41.29081871,-72.38420824
06477,ORANGE,CT,41.281310735,-73.02575114
06478,OXFORD,CT,41.426607796,-73.1300754
06479,PLANTSVILLE,CT,41.579570121,-72.89774364
06480,PORTLAND,CT,41.586750437,-72.61081883
06481,ROCKFALL,CT,41.534975969,-72.69916765
06482,SANDY HOOK,CT,41.411996759,-73.25163926
06483,SEYMOUR,CT,41.386546214,-73.08231044
06484,SHELTON,CT,41.303349858,-73.12405379
06488,SOUTHBURY,CT,41.477504209,-73.22294732
06489,SOUTHINGTON,CT,41.605604828,-72.87286721
06492,WALLINGFORD,CT,41.4597779,-72.82067152
06498,WESTBROOK,CT,41.289934559,-72.4556517
06510,NEW HAVEN,CT,41.306232061,-72.92549204
06511,NEW HAVEN,CT,41.317470057,-72.92962406
06512,EAST HAVEN,CT,41.277157814,-72.87498851
06513,NEW HAVEN,CT,41.315276967,-72.87917984
06514,HAMDEN,CT,41.36267623,-72.93369093
06515,NEW HAVEN,CT,41.328242762,-72.96667148
06516,WEST HAVEN,CT,41.270605979,-72.96259745
06517,HAMDEN,CT,41.34825051,-72.91128041
06518,HAMDEN,CT,41.404547453,-72.91086376
06519,NEW HAVEN,CT,41.296408822,-72.93603831
06524,BETHANY,CT,41.424979625,-73.00088951
06525,WOODBRIDGE,CT,41.352363293,-73.01243832
06604,BRIDGEPORT,CT,41.182230652,-73.20391159
06605,BRIDGEPORT,CT,41.165494145,-73.21662057
06606,BRIDGEPORT,CT,41.208550598,-73.20798304
06607,BRIDGEPORT,CT,41.178282204,-73.16429842
06608,BRIDGEPORT,CT,41.190305732,-73.18126148
06610,BRIDGEPORT,CT,41.20063326,-73.16747606
06611,TRUMBULL,CT,41.255489307,-73.2092532
06612,EASTON,CT,41.25609947,-73.28562852
06614,STRATFORD,CT,41.219492048,-73.13480344
06615,STRATFORD,CT,41.178553326,-73.13452234
06702,WATERBURY,CT,41.556853558,-73.03928294
06704,WATERBURY,CT,41.576661855,-73.03125025
06705,WATERBURY,CT,41.550938075,-72.9950568
06706,WATERBURY,CT,41.536094875,-73.02907148
06708,WATERBURY,CT,41.551193068,-73.06419112
06710,WATERBURY,CT,41.56640558,-73.04582278
06712,PROSPECT,CT,41.505151613,-72.97788889
06716,WOLCOTT,CT,41.596059154,-72.9818171
06750,BANTAM,CT,41.720839807,-73.24929047
06751,BETHLEHEM,CT,41.638528473,-73.20759553
06752,BRIDGEWATER,CT,41.529134962,-73.3615124
06754,CORNWALL BRIDGE,CT,41.769157492,-73.36597456
06755,GAYLORDSVILLE,CT,41.646068627,-73.47986606
06756,GOSHEN,CT,41.823842883,-73.24565886
06757,KENT,CT,41.728452809,-73.45905719
06758,LAKESIDE,CT,41.67992931,-73.23895896
06759,LITCHFIELD,CT,41.753617196,-73.19513238
06762,MIDDLEBURY,CT,41.529828366,-73.11708635
06763,MORRIS,CT,41.689222961,-73.21008584
06770,NAUGATUCK,CT,41.491932612,-73.04882454
06776,NEW MILFORD,CT,41.580736123,-73.41293587
06777,NEW PRESTON MARBLE DALE,CT,41.68884477,-73.34695262
06778,NORTHFIELD,CT,41.710025769,-73.10407754
06779,OAKVILLE,CT,41.592000176,-73.08636419
06782,PLYMOUTH,CT,41.6619584,-73.04889701
06783,ROXBURY,CT,41.549857244,-73.29742235
06784,SHERMAN,CT,41.57163879,-73.49223984
06785,SOUTH KENT,CT,41.703716532,-73.44680984
06786,TERRYVILLE,CT,41.675794317,-73.01003962
06787,THOMASTON,CT,41.672501513,-73.08466036
06790,TORRINGTON,CT,41.815040334,-73.11402263
06791,HARWINTON,CT,41.77047187,-73.07080186
06793,WASHINGTON,CT,41.632554828,-73.29020625
06794,WASHINGTON DEPOT,CT,41.649039543,-73.32613137
06795,WATERTOWN,CT,41.605534086,-73.12140336
06796,WEST CORNWALL,CT,41.871209828,-73.33207449
06798,WOODBURY,CT,41.55150304,-73.20707909
06801,BETHEL,CT,41.380728726,-73.40245807
06804,BROOKFIELD,CT,41.465248525,-73.4002584
06807,COS COB,CT,41.050030713,-73.59320492
06810,DANBURY,CT,41.39044147,-73.45838353
06811,DANBURY,CT,41.422599255,-73.46700876
06812,NEW FAIRFIELD,CT,41.476102794,-73.49646699
06820,DARIEN,CT,41.076626007,-73.4855506
06824,FAIRFIELD,CT,41.160289667,-73.26159192
06825,FAIRFIELD,CT,41.190522383,-73.23801927
06830,GREENWICH,CT,41.029899773,-73.63053939
06831,GREENWICH,CT,41.054200208,-73.65935183
06840,NEW CANAAN,CT,41.15040483,-73.49353638
06850,NORWALK,CT,41.124005589,-73.43194544
06851,NORWALK,CT,41.131925075,-73.40645119
06853,NORWALK,CT,41.068872458,-73.43940694
06854,NORWALK,CT,41.096138455,-73.42783851
06855,NORWALK,CT,41.102186119,-73.40031633
06870,OLD GREENWICH,CT,41.035639834,-73.56690879
06877,RIDGEFIELD,CT,41.298895097,-73.49836231
06878,RIVERSIDE,CT,41.038614574,-73.58142431
06880,WESTPORT,CT,41.14167528,-73.34910335
06883,WESTON,CT,41.219368738,-73.36952358
06890,SOUTHPORT,CT,41.142787451,-73.28857543
06896,REDDING,CT,41.299084985,-73.39914161
06897,WILTON,CT,41.201074051,-73.43556029
06901,STAMFORD,CT,41.054777699,-73.53846136
06902,STAMFORD,CT,41.052625717,-73.53674772
06903,STAMFORD,CT,41.135292975,-73.56803359
06905,STAMFORD,CT,41.078288463,-73.54317348
06906,STAMFORD,CT,41.069733467,-73.52333799
06907,STAMFORD,CT,41.095868909,-73.51939542
07001,AVENEL,NJ,40.581196884,-74.27765411
07002,BAYONNE,NJ,40.666997896,-74.11808715
07003,BLOOMFIELD,NJ,40.802471181,-74.18959646
07004,FAIRFIELD,NJ,40.880740854,-74.29507043
07005,BOONTON,NJ,40.911572427,-74.41401188
07006,CALDWELL,NJ,40.847654873,-74.27758985
07008,CARTERET,NJ,40.581570807,-74.22883389
07009,CEDAR GROVE,NJ,40.854662626,-74.23014242
07010,CLIFFSIDE PARK,NJ,40.822065194,-73.98747381
07011,CLIFTON,NJ,40.879213085,-74.14209198
07012,CLIFTON,NJ,40.849406313,-74.16181935
07013,CLIFTON,NJ,40.869875154,-74.16938481
07014,CLIFTON,NJ,40.833156055,-74.13563448
07016,CRANFORD,NJ,40.655506806,-74.30428312
07017,EAST ORANGE,NJ,40.770486191,-74.20834724
07018,EAST ORANGE,NJ,40.755918678,-74.22014027
07020,EDGEWATER,NJ,40.820541227,-73.97997576
07021,ESSEX FELLS,NJ,40.828181294,-74.27797213
07022,FAIRVIEW,NJ,40.817077584,-73.99956672
07023,FANWOOD,NJ,40.641698122,-74.38523218
07024,FORT LEE,NJ,40.850839005,-73.97312425
07026,GARFIELD,NJ,40.878991086,-74.10845094
07027,GARWOOD,NJ,40.651544543,-74.32426652
07028,GLEN RIDGE,NJ,40.803402011,-74.20488151
07029,HARRISON,NJ,40.744673562,-74.15736692
07030,HOBOKEN,NJ,40.745072083,-74.0325293
07031,NORTH ARLINGTON,NJ,40.78959058,-74.13346098
07032,KEARNY,NJ,40.76488922,-74.14708303
07033,KENILWORTH,NJ,40.675939666,-74.29393304
07034,LAKE HIAWATHA,NJ,40.883270369,-74.38233088
07035,LINCOLN PARK,NJ,40.92217095,-74.30156359
07036,LINDEN,NJ,40.635250208,-74.25542513
07039,LIVINGSTON,NJ,40.789723411,-74.32188309
07040,MAPLEWOOD,NJ,40.727741881,-74.26398469
07041,MILLBURN,NJ,40.722440414,-74.30097577
07042,MONTCLAIR,NJ,40.813015378,-74.21598813
07043,MONTCLAIR,NJ,40.842632073,-74.20078643
07044,VERONA,NJ,40.832706345,-74.24151191
07045,MONTVILLE,NJ,40.905288251,-74.36780497
07046,MOUNTAIN LAKES,NJ,40.889012094,-74.43851922
07047,NORTH BERGEN,NJ,40.79343555,-74.01601785
07050,ORANGE,NJ,40.769145003,-74.23459886
07052,WEST ORANGE,NJ,40.786243545,-74.25765137
07054,PARSIPPANY,NJ,40.861656699,-74.40813938
07055,PASSAIC,NJ,40.859773679,-74.12809759
07057,WALLINGTON,NJ,40.853765268,-74.10720872
07058,PINE BROOK,NJ,40.866771516,-74.34241128
07059,WARREN,NJ,40.629160409,-74.51133444
07060,PLAINFIELD,NJ,40.617177407,-74.42454284
07062,PLAINFIELD,NJ,40.631946528,-74.4054027
07063,PLAINFIELD,NJ,40.604231587,-74.44422209
07064,PORT READING,NJ,40.569725962,-74.24648403
07065,RAHWAY,NJ,40.608709654,-74.27979381
07066,CLARK,NJ,40.621040841,-74.31100764
07067,COLONIA,NJ,40.593568636,-74.31495783
07068,ROSELAND,NJ,40.820415823,-74.30649643
07069,WATCHUNG,NJ,40.639290195,-74.44472393
07070,RUTHERFORD,NJ,40.829414086,-74.11138026
07071,LYNDHURST,NJ,40.808639319,-74.12101013
07072,CARLSTADT,NJ,40.840290588,-74.09199074
07073,EAST RUTHERFORD,NJ,40.836394701,-74.10258266
07074,MOONACHIE,NJ,40.839797449,-74.05750537
07075,WOOD RIDGE,NJ,40.851147924,-74.08801817
07076,SCOTCH PLAINS,NJ,40.638508174,-74.3738478
07077,SEWAREN,NJ,40.554840393,-74.25891458
07078,SHORT HILLS,NJ,40.735602383,-74.32595626
07079,SOUTH ORANGE,NJ,40.746999531,-74.2594232
07080,SOUTH PLAINFIELD,NJ,40.580502194,-74.41449614
07081,SPRINGFIELD,NJ,40.701784534,-74.32221673
07082,TOWACO,NJ,40.92199856,-74.34508199
07083,UNION,NJ,40.695293201,-74.2677816
07086,WEEHAWKEN,NJ,40.769425916,-74.01971794
07087,UNION CITY,NJ,40.767620638,-74.03156202
07088,VAUXHALL,NJ,40.71824861,-74.28164501
07090,WESTFIELD,NJ,40.649521914,-74.34339025
07092,MOUNTAINSIDE,NJ,40.678532313,-74.3582928
07093,WEST NEW YORK,NJ,40.787861778,-74.01046874
07094,SECAUCUS,NJ,40.786676143,-74.06614306
07095,WOODBRIDGE,NJ,40.556468653,-74.28466664
07102,NEWARK,NJ,40.732475409,-74.17528309
07103,NEWARK,NJ,40.737798542,-74.19447931
07104,NEWARK,NJ,40.765957939,-74.16953701
07105,NEWARK,NJ,40.727043956,-74.15605978
07106,NEWARK,NJ,40.741366998,-74.23366426
07107,NEWARK,NJ,40.762359785,-74.18688562
07108,NEWARK,NJ,40.72329908,-74.20072796
07109,BELLEVILLE,NJ,40.79418598,-74.16345582
07110,NUTLEY,NJ,40.818040008,-74.15639635
07111,IRVINGTON,NJ,40.725428289,-74.23186025
07112,NEWARK,NJ,40.710632098,-74.21166362
07114,NEWARK,NJ,40.710019191,-74.18886882
07201,ELIZABETH,NJ,40.671266544,-74.20420742
07202,ELIZABETH,NJ,40.657574878,-74.22110283
07203,ROSELLE,NJ,40.652211512,-74.26067652
07204,ROSELLE PARK,NJ,40.664907035,-74.26712508
07205,HILLSIDE,NJ,40.696709337,-74.22745467
07206,ELIZABETHPORT,NJ,40.652765381,-74.19201377
07208,ELIZABETH,NJ,40.67503635,-74.2219959
07302,JERSEY CITY,NJ,40.719436987,-74.0424388
07304,JERSEY CITY,NJ,40.717819719,-74.07326647
07305,JERSEY CITY,NJ,40.702487458,-74.08979299
07306,JERSEY CITY,NJ,40.732274999,-74.06473349
07307,JERSEY CITY,NJ,40.74798715,-74.04940168
07310,JERSEY CITY,NJ,40.729010975,-74.03563816
07311,JERSEY CITY,NJ,40.719868444,-74.03445062
07401,ALLENDALE,NJ,41.031831645,-74.13276018
07403,BLOOMINGDALE,NJ,41.012343945,-74.33332871
07405,BUTLER,NJ,40.994278278,-74.36338689
07407,ELMWOOD PARK,NJ,40.906756531,-74.12058183
07410,FAIR LAWN,NJ,40.934709108,-74.11720889
07416,FRANKLIN,NJ,41.116052889,-74.58574449
07417,FRANKLIN LAKES,NJ,41.00830731,-74.20848643
07418,GLENWOOD,NJ,41.235261872,-74.4846499
07419,HAMBURG,NJ,41.151929248,-74.57506711
07420,HASKELL,NJ,41.03025828,-74.29548856
07421,HEWITT,NJ,41.172733078,-74.36803188
07422,HIGHLAND LAKES,NJ,41.181594135,-74.45475139
07423,HO HO KUS,NJ,41.000428668,-74.10177244
07424,LITTLE FALLS,NJ,40.884564345,-74.21029968
07430,MAHWAH,NJ,41.075554067,-74.15439957
07432,MIDLAND PARK,NJ,40.994786044,-74.14109902
07435,NEWFOUNDLAND,NJ,41.038305993,-74.45676608
07436,OAKLAND,NJ,41.030819074,-74.23358338
07438,OAK RIDGE,NJ,41.025065039,-74.50958564
07439,OGDENSBURG,NJ,41.076628275,-74.59778761
07440,PEQUANNOCK,NJ,40.947542113,-74.29554984
07442,POMPTON LAKES,NJ,41.001232381,-74.28701008
07444,POMPTON PLAINS,NJ,40.97069393,-74.31017866
07446,RAMSEY,NJ,41.059425657,-74.14111183
07450,RIDGEWOOD,NJ,40.981761802,-74.11301891
07452,GLEN ROCK,NJ,40.960272072,-74.12518586
07456,RINGWOOD,NJ,41.091756466,-74.26676288
07457,RIVERDALE,NJ,40.992607725,-74.31184946
07458,SADDLE RIVER,NJ,41.052971517,-74.09927555
07460,STOCKHOLM,NJ,41.095197112,-74.52238379
07461,SUSSEX,NJ,41.227541359,-74.59652642
07462,VERNON,NJ,41.185268232,-74.51707156
07463,WALDWICK,NJ,41.013043945,-74.12438803
07465,WANAQUE,NJ,41.053113796,-74.2816289
07470,WAYNE,NJ,40.947974329,-74.24477777
07480,WEST MILFORD,NJ,41.095017946,-74.37345564
07481,WYCKOFF,NJ,40.997626134,-74.16609199
07501,PATERSON,NJ,40.914783121,-74.16669206
07502,PATERSON,NJ,40.919634835,-74.19341756
07503,PATERSON,NJ,40.896610963,-74.15741035
07504,PATERSON,NJ,40.912542591,-74.14457827
07505,PATERSON,NJ,40.916052824,-74.17225718
07506,HAWTHORNE,NJ,40.955871754,-74.15608159
07508,HALEDON,NJ,40.946466778,-74.18146329
07512,TOTOWA,NJ,40.90564817,-74.21518971
07513,PATERSON,NJ,40.906157731,-74.15120827
07514,PATERSON,NJ,40.924382199,-74.14536365
07522,PATERSON,NJ,40.925401337,-74.17914919
07524,PATERSON,NJ,40.931528895,-74.15450143
07601,HACKENSACK,NJ,40.889331824,-74.0494044
07603,BOGOTA,NJ,40.874257292,-74.02828775
07604,HASBROUCK HEIGHTS,NJ,40.861995174,-74.07507948
07605,LEONIA,NJ,40.863050743,-73.98737593
07606,SOUTH HACKENSACK,NJ,40.862787233,-74.04550374
07607,MAYWOOD,NJ,40.902276726,-74.06247061
07608,TETERBORO,NJ,40.855467667,-74.062863
07621,BERGENFIELD,NJ,40.92401539,-73.99815121
07624,CLOSTER,NJ,40.972049069,-73.95889224
07626,CRESSKILL,NJ,40.941180612,-73.96421246
07627,DEMAREST,NJ,40.95466785,-73.96006033
07628,DUMONT,NJ,40.94455987,-73.99182913
07630,EMERSON,NJ,40.975888197,-74.02742147
07631,ENGLEWOOD,NJ,40.892875664,-73.97777837
07632,ENGLEWOOD CLIFFS,NJ,40.882025035,-73.95467229
07640,HARRINGTON PARK,NJ,40.990192007,-73.98042986
07641,HAWORTH,NJ,40.960839653,-73.98703668
07642,HILLSDALE,NJ,41.006827406,-74.04228688
07643,LITTLE FERRY,NJ,40.850656778,-74.03977038
07644,LODI,NJ,40.876121658,-74.08354511
07645,MONTVALE,NJ,41.05168021,-74.0446396
07646,NEW MILFORD,NJ,40.932365394,-74.01909549
07647,NORTHVALE,NJ,41.010110089,-73.95081238
07648,NORWOOD,NJ,40.995908763,-73.95747978
07649,ORADELL,NJ,40.953284586,-74.03336595
07650,PALISADES PARK,NJ,40.846503679,-73.99493168
07652,PARAMUS,NJ,40.947485034,-74.06776473
07656,PARK RIDGE,NJ,41.035100307,-74.0396459
07657,RIDGEFIELD,NJ,40.832468958,-74.00117579
07660,RIDGEFIELD PARK,NJ,40.855922482,-74.02275677
07661,RIVER EDGE,NJ,40.926039467,-74.03826145
07662,ROCHELLE PARK,NJ,40.907071132,-74.07889115
07663,SADDLE BROOK,NJ,40.903766056,-74.09613468
07666,TEANECK,NJ,40.89135987,-74.01131056
07670,TENAFLY,NJ,40.922347554,-73.96553863
07675,WESTWOOD,NJ,41.002464712,-74.01412388
07676,TOWNSHIP OF WASHINGTON,NJ,40.988693541,-74.06094976
07677,WOODCLIFF LAKE,NJ,41.025965393,-74.06040142
07701,RED BANK,NJ,40.352900519,-74.07842359
07702,SHREWSBURY,NJ,40.326882033,-74.06034416
07704,FAIR HAVEN,NJ,40.35953703,-74.03877977
07711,ALLENHURST,NJ,40.237133343,-74.00695493
07712,ASBURY PARK,NJ,40.238881096,-74.03566733
07716,ATLANTIC HIGHLANDS,NJ,40.407220187,-74.03116452
07717,AVON BY THE SEA,NJ,40.191781749,-74.0163787
07718,BELFORD,NJ,40.416856399,-74.08780771
07719,BELMAR,NJ,40.172850219,-74.04654811
07720,BRADLEY BEACH,NJ,40.202239779,-74.01229214
07721,CLIFFWOOD,NJ,40.434846226,-74.23455484
07722,COLTS NECK,NJ,40.302970464,-74.18588513
07723,DEAL,NJ,40.249924016,-74.00101538
07724,EATONTOWN,NJ,40.301894467,-74.06996716
07726,ENGLISHTOWN,NJ,40.297520884,-74.33413886
07727,FARMINGDALE,NJ,40.206732159,-74.17327861
07728,FREEHOLD,NJ,40.241015107,-74.27514638
07730,HAZLET,NJ,40.423994093,-74.17748191
07731,HOWELL,NJ,40.150856623,-74.21262352
07732,HIGHLANDS,NJ,40.402120643,-73.99133665
07733,HOLMDEL,NJ,40.391670797,-74.16577405
07734,KEANSBURG,NJ,40.444915007,-74.13319187
07735,KEYPORT,NJ,40.439276542,-74.19866365
07737,LEONARDO,NJ,40.415111584,-74.06011145
07738,LINCROFT,NJ,40.338481865,-74.12168699
07739,LITTLE SILVER,NJ,40.335867128,-74.04152694
07740,LONG BRANCH,NJ,40.298527682,-73.99029517
07746,MARLBORO,NJ,40.314989142,-74.26239392
07747,MATAWAN,NJ,40.411487345,-74.23948844
07748,MIDDLETOWN,NJ,40.404975312,-74.1150179
07750,MONMOUTH BEACH,NJ,40.33352511,-73.98063744
07751,MORGANVILLE,NJ,40.361081293,-74.26590515
07753,NEPTUNE,NJ,40.214086229,-74.05952359
07755,OAKHURST,NJ,40.264191795,-74.02163641
07756,OCEAN GROVE,NJ,40.211791214,-74.00857654
07757,OCEANPORT,NJ,40.315436122,-74.01950962
07758,PORT MONMOUTH,NJ,40.429349265,-74.10431415
07760,RUMSON,NJ,40.367985248,-73.99717659
07762,SPRING LAKE,NJ,40.153786582,-74.03821387
07764,WEST LONG BRANCH,NJ,40.289691074,-74.01728642
07801,DOVER,NJ,40.887405003,-74.5529596
07803,MINE HILL,NJ,40.877102813,-74.59940189
07821,ANDOVER,NJ,40.965866673,-74.74278797
07822,AUGUSTA,NJ,41.144116924,-74.69592386
07823,BELVIDERE,NJ,40.825279038,-75.0514907
07825,BLAIRSTOWN,NJ,40.971573404,-74.96239505
07826,BRANCHVILLE,NJ,41.177252097,-74.75978835
07827,MONTAGUE,NJ,41.30200964,-74.75359213
07828,BUDD LAKE,NJ,40.872427399,-74.74081181
07830,CALIFON,NJ,40.723791856,-74.81749805
07831,CHANGEWATER,NJ,40.7131,-74.9229
07832,COLUMBIA,NJ,40.941757237,-75.05030789
07834,DENVILLE,NJ,40.887258443,-74.48685074
07836,FLANDERS,NJ,40.844931656,-74.70266363
07838,GREAT MEADOWS,NJ,40.878650196,-74.9207446
07840,HACKETTSTOWN,NJ,40.857301463,-74.83078899
07843,HOPATCONG,NJ,40.938955059,-74.66156061
07847,KENVIL,NJ,40.878912156,-74.6230293
07848,LAFAYETTE,NJ,41.089480207,-74.69176983
07849,LAKE HOPATCONG,NJ,40.963452992,-74.6141749
07850,LANDING,NJ,40.909665949,-74.6559162
07851,LAYTON,NJ,41.217629901,-74.8369099
07852,LEDGEWOOD,NJ,40.8777387,-74.66371007
07853,LONG VALLEY,NJ,40.794259435,-74.78456429
07856,MOUNT ARLINGTON,NJ,40.912744566,-74.64044551
07857,NETCONG,NJ,40.898584816,-74.69829038
07860,NEWTON,NJ,41.058251963,-74.78268731
07863,OXFORD,NJ,40.810771854,-74.98127102
07865,PORT MURRAY,NJ,40.787510994,-74.89751485
07866,ROCKAWAY,NJ,40.917360975,-74.51501432
07869,RANDOLPH,NJ,40.847706218,-74.57371951
07871,SPARTA,NJ,41.032556207,-74.6397025
07874,STANHOPE,NJ,40.9200629,-74.70325904
07876,SUCCASUNNA,NJ,40.854529296,-74.65447834
07882,WASHINGTON,NJ,40.756719957,-74.9862413
07885,WHARTON,NJ,40.922627226,-74.57055633
07901,SUMMIT,NJ,40.715057523,-74.36420226
07920,BASKING RIDGE,NJ,40.672537317,-74.56784065
07921,BEDMINSTER,NJ,40.656076454,-74.63992488
07922,BERKELEY HEIGHTS,NJ,40.676368808,-74.43336765
07924,BERNARDSVILLE,NJ,40.721180355,-74.57621721
07927,CEDAR KNOLLS,NJ,40.821175554,-74.45352147
07928,CHATHAM,NJ,40.730339695,-74.40130257
07930,CHESTER,NJ,40.786204466,-74.67986915
07931,FAR HILLS,NJ,40.705637415,-74.6402714
07932,FLORHAM PARK,NJ,40.773912823,-74.39230614
07933,GILLETTE,NJ,40.682482598,-74.46606613
07934,GLADSTONE,NJ,40.723320599,-74.67031711
07935,GREEN VILLAGE,NJ,40.739551612,-74.44945831
07936,EAST HANOVER,NJ,40.817042178,-74.36191468
07940,MADISON,NJ,40.759116543,-74.41509875
07945,MENDHAM,NJ,40.783610011,-74.59934168
07946,MILLINGTON,NJ,40.673109585,-74.51610321
07950,MORRIS PLAINS,NJ,40.843416769,-74.47988264
07960,MORRISTOWN,NJ,40.79495375,-74.48307743
07974,NEW PROVIDENCE,NJ,40.698611101,-74.40265695
07976,NEW VERNON,NJ,40.73649886,-74.48132048
07980,STIRLING,NJ,40.674522291,-74.49625696
07981,WHIPPANY,NJ,40.822148036,-74.42150642
08002,CHERRY HILL,NJ,39.931400596,-75.0190333
08003,CHERRY HILL,NJ,39.882569058,-74.9694674
08004,ATCO,NJ,39.766088128,-74.88084011
08005,BARNEGAT,NJ,39.759674894,-74.25310635
08007,BARRINGTON,NJ,39.864962558,-75.05661773
08008,BEACH HAVEN,NJ,39.63305556,-74.19093145
08009,BERLIN,NJ,39.775966324,-74.93301676
08010,BEVERLY,NJ,40.055667373,-74.90997279
08012,BLACKWOOD,NJ,39.787222973,-75.05780238
08014,BRIDGEPORT,NJ,39.800651317,-75.34845681
08015,BROWNS MILLS,NJ,39.960197247,-74.5652257
08016,BURLINGTON,NJ,40.06601794,-74.84633144
08019,CHATSWORTH,NJ,39.809080042,-74.53546279
08020,CLARKSBORO,NJ,39.802340708,-75.22788229
08021,CLEMENTON,NJ,39.807697677,-75.0037429
08022,COLUMBUS,NJ,40.073220509,-74.70954601
08026,GIBBSBORO,NJ,39.83628077,-74.96962377
08027,GIBBSTOWN,NJ,39.823200422,-75.27494118
08028,GLASSBORO,NJ,39.702246111,-75.11772897
08029,GLENDORA,NJ,39.840622406,-75.06962034
08030,GLOUCESTER CITY,NJ,39.891031658,-75.11637227
08031,BELLMAWR,NJ,39.86936667,-75.09409989
08032,GRENLOCH,NJ,39.779345655,-75.06094396
08033,HADDONFIELD,NJ,39.895972095,-75.04060206
08034,CHERRY HILL,NJ,39.907474405,-75.00016179
08035,HADDON HEIGHTS,NJ,39.879248188,-75.06535936
08036,HAINESPORT,NJ,39.977944364,-74.83506837
08037,HAMMONTON,NJ,39.639871052,-74.79272317
08041,JOBSTOWN,NJ,40.04180762,-74.6821347
08043,VOORHEES,NJ,39.848204921,-74.96669025
08045,LAWNSIDE,NJ,39.867175673,-75.03129671
08046,WILLINGBORO,NJ,40.030087339,-74.88461821
08048,LUMBERTON,NJ,39.969892863,-74.79406006
08049,MAGNOLIA,NJ,39.854267315,-75.03847953
08050,MANAHAWKIN,NJ,39.710962961,-74.26617746
08051,MANTUA,NJ,39.787942416,-75.17929541
08052,MAPLE SHADE,NJ,39.94945845,-74.99187224
08053,MARLTON,NJ,39.88352082,-74.90084854
08054,MOUNT LAUREL,NJ,39.950387913,-74.8978249
08055,MEDFORD,NJ,39.873190749,-74.82451604
08056,MICKLETON,NJ,39.783923372,-75.25001519
08057,MOORESTOWN,NJ,39.972844257,-74.94715609
08059,MOUNT EPHRAIM,NJ,39.882757759,-75.09267789
08060,MOUNT HOLLY,NJ,40.004324865,-74.78870112
08061,MOUNT ROYAL,NJ,39.799631576,-75.20420902
08062,MULLICA HILL,NJ,39.7229108,-75.21870002
08063,NATIONAL PARK,NJ,39.866890632,-75.17892729
08065,PALMYRA,NJ,40.004761002,-75.02719443
08066,PAULSBORO,NJ,39.832445549,-75.22769404
08067,PEDRICKTOWN,NJ,39.741126107,-75.41431184
08068,PEMBERTON,NJ,39.965346512,-74.68012168
08069,PENNS GROVE,NJ,39.719547514,-75.46338144
08070,PENNSVILLE,NJ,39.648048318,-75.51417424
08071,PITMAN,NJ,39.73141616,-75.12888856
08075,RIVERSIDE,NJ,40.025670184,-74.95182947
08077,RIVERTON,NJ,39.999253022,-74.99579566
08078,RUNNEMEDE,NJ,39.851322087,-75.07267295
08079,SALEM,NJ,39.55573221,-75.45101104
08080,SEWELL,NJ,39.749554387,-75.09558145
08081,SICKLERVILLE,NJ,39.739952511,-74.987736
08083,SOMERDALE,NJ,39.841335127,-75.02706541
08084,STRATFORD,NJ,39.829230476,-75.01404725
08085,SWEDESBORO,NJ,39.744388913,-75.33354125
08086,THOROFARE,NJ,39.83921336,-75.18455095
08087,TUCKERTON,NJ,39.588656218,-74.36019704
08088,VINCENTOWN,NJ,39.872142253,-74.72354552
08089,WATERFORD WORKS,NJ,39.724390152,-74.86277449
08090,WENONAH,NJ,39.799522547,-75.15229749
08091,WEST BERLIN,NJ,39.807031765,-74.92835072
08092,WEST CREEK,NJ,39.666109344,-74.28612093
08093,WESTVILLE,NJ,39.859673053,-75.13098752
08094,WILLIAMSTOWN,NJ,39.672754811,-74.98523645
08096,WOODBURY,NJ,39.831787823,-75.13504763
08097,WOODBURY HEIGHTS,NJ,39.814501188,-75.15186248
08098,WOODSTOWN,NJ,39.650060396,-75.32646373
08102,CAMDEN,NJ,39.950460094,-75.11964469
08103,CAMDEN,NJ,39.935745753,-75.11178595
08104,CAMDEN,NJ,39.917103102,-75.1064125
08105,CAMDEN,NJ,39.949506659,-75.08688448
08106,AUDUBON,NJ,39.89144898,-75.07262222
08107,OAKLYN,NJ,39.907679969,-75.08389608
08108,COLLINGSWOOD,NJ,39.914817977,-75.06267572
08109,MERCHANTVILLE,NJ,39.950967203,-75.04850041
08110,PENNSAUKEN,NJ,39.961356254,-75.0622736
08201,ABSECON,NJ,39.428527066,-74.50443327
08202,AVALON,NJ,39.096832461,-74.72577006
08203,BRIGANTINE,NJ,39.399876772,-74.38288381
08204,CAPE MAY,NJ,38.971016565,-74.9266296
08205,ABSECON,NJ,39.477151437,-74.49855429
08210,CAPE MAY COURT HOUSE,NJ,39.098583483,-74.82746281
08215,EGG HARBOR CITY,NJ,39.529828544,-74.61674975
08221,LINWOOD,NJ,39.34661403,-74.57530113
08223,MARMORA,NJ,39.262152066,-74.65435314
08225,NORTHFIELD,NJ,39.371000149,-74.55486356
08226,OCEAN CITY,NJ,39.270373033,-74.5875747
08230,OCEAN VIEW,NJ,39.216965679,-74.70255216
08232,PLEASANTVILLE,NJ,39.394958307,-74.5229829
08234,EGG HARBOR TOWNSHIP,NJ,39.391251048,-74.60557203
08241,PORT REPUBLIC,NJ,39.524929438,-74.49244893
08242,RIO GRANDE,NJ,39.018262399,-74.87590737
08243,SEA ISLE CITY,NJ,39.14458615,-74.70100765
08244,SOMERS POINT,NJ,39.321848746,-74.60052874
08247,STONE HARBOR,NJ,39.053672114,-74.76137742
08251,VILLAS,NJ,39.02271217,-74.93593727
08260,WILDWOOD,NJ,38.990297219,-74.81846077
08270,WOODBINE,NJ,39.252232939,-74.79316153
08302,BRIDGETON,NJ,39.443998829,-75.23253854
08310,BUENA,NJ,39.51871137,-74.91329236
08311,CEDARVILLE,NJ,39.338637966,-75.18748805
08312,CLAYTON,NJ,39.658325246,-75.08633318
08314,DELMONT,NJ,39.218960897,-74.94840978
08317,DOROTHY,NJ,39.401729728,-74.831566
08318,ELMER,NJ,39.555305562,-75.15313955
08319,ESTELL MANOR,NJ,39.374228271,-74.82407239
08322,FRANKLINVILLE,NJ,39.618289274,-75.04313155
08323,GREENWICH,NJ,39.40412652,-75.34694145
08324,HEISLERVILLE,NJ,39.231045484,-74.99216219
08326,LANDISVILLE,NJ,39.524544788,-74.93872662
08327,LEESBURG,NJ,39.248761745,-74.98656058
08328,MALAGA,NJ,39.576609226,-75.05690751
08330,MAYS LANDING,NJ,39.456381051,-74.69879032
08332,MILLVILLE,NJ,39.3882522,-75.0427823
08340,MILMAY,NJ,39.439179018,-74.87148387
08341,MINOTOLA,NJ,39.518436905,-74.95100473
08343,MONROEVILLE,NJ,39.644202751,-75.15737698
08344,NEWFIELD,NJ,39.561728759,-75.02501596
08345,NEWPORT,NJ,39.29057037,-75.17904276
08346,NEWTONVILLE,NJ,39.56382005,-74.86115616
08348,PORT ELIZABETH,NJ,39.314726154,-74.968091
